city,city_ascii,lat,lng,country,iso2,iso3,admin_name,capital,population,id
Tokyo,Tokyo,35.6897,139.6922,Japan,JP,JPN,Tōkyō,primary,37977000,1392685764
Jakarta,Jakarta,-6.2146,106.8451,Indonesia,ID,IDN,Jakarta,primary,34540000,1360771077
Delhi,Delhi,28.6600,77.2300,India,IN,IND,Delhi,admin,29617000,1356872604
Manila,Manila,14.6000,120.9833,Philippines,PH,PHL,Manila,primary,23088000,1608618140
Shanghai,Shanghai,31.1667,121.4667,China,CN,CHN,Shanghai,admin,22120000,1156073548
São Paulo,Sao Paulo,-23.5504,-46.6339,Brazil,BR,BRA,São Paulo,admin,22046000,1076532519
Seoul,Seoul,37.5600,126.9900,South Korea,KR,KOR,Seoul,primary,21794000,1410836482
Mexico City,Mexico City,19.4333,-99.1333,Mexico,MX,MEX,Ciudad de México,primary,20996000,1484247881
Beijing,Beijing,39.9050,116.3914,China,CN,CHN,Beijing,primary,19433000,1156228865
Cairo,Cairo,30.0561,31.2394,Egypt,EG,EGY,Al Qāhirah,primary,19372000,1818253931
New York,New York,40.6943,-73.9249,United States,US,USA,New York,admin,18713220,1840034016
Moscow,Moscow,55.7558,37.6178,Russia,RU,RUS,Moskva,primary,17125000,1643318494
Bangkok,Bangkok,13.7500,100.5167,Thailand,TH,THA,Krung Thep Maha Nakhon,primary,17066000,1764068610
Buenos Aires,Buenos Aires,-34.5997,-58.3819,Argentina,AR,ARG,"Buenos Aires, Ciudad Autónoma de",primary,16157000,1032717330
Dhaka,Dhaka,23.7289,90.3944,Bangladesh,BD,BGD,Dhaka,primary,15443000,1050529279
Lagos,Lagos,6.4500,3.4000,Nigeria,NG,NGA,Lagos,minor,15279000,1566593751
Istanbul,Istanbul,41.0100,28.9603,Turkey,TR,TUR,İstanbul,admin,15154000,1792756324
Karachi,Karachi,24.8600,67.0100,Pakistan,PK,PAK,Sindh,admin,14835000,1586129469
Tehran,Tehran,35.7000,51.4167,Iran,IR,IRN,Tehrān,primary,13633000,1364305026
Kinshasa,Kinshasa,-4.3233,15.3081,Congo (Kinshasa),CD,COD,Kinshasa,primary,13528000,1180000363
Ho Chi Minh City,Ho Chi Minh City,10.8167,106.6333,Vietnam,VN,VNM,Hồ Chí Minh,admin,13312000,1704774326
Paris,Paris,48.8566,2.3522,France,FR,FRA,Île-de-France,primary,11020000,1250015082
London,London,51.5072,-0.1275,United Kingdom,GB,GBR,"London, City of",primary,10979000,1826645935
Lima,Lima,-12.0500,-77.0333,Peru,PE,PER,Lima,primary,9848000,1604728603
Bogotá,Bogota,4.6126,-74.0705,Colombia,CO,COL,Bogotá,primary,9464000,1170483426
Luanda,Luanda,-8.8383,13.2344,Angola,AO,AGO,Luanda,primary,8417000,1024949724
Kuala Lumpur,Kuala Lumpur,3.1478,101.6953,Malaysia,MY,MYS,Kuala Lumpur,primary,8285000,1458988644
Hanoi,Hanoi,21.0245,105.8412,Vietnam,VN,VNM,Hà Nội,primary,7785000,1704413791
Hong Kong,Hong Kong,22.3050,114.1850,Hong Kong,HK,HKG,,primary,7347000,1344982653
Khartoum,Khartoum,15.6031,32.5265,Sudan,SD,SDN,Khartoum,primary,7282000,1729268475
Santiago,Santiago,-33.4500,-70.6667,Chile,CL,CHL,Región Metropolitana,primary,7007000,1152554349
Riyadh,Riyadh,24.6500,46.7100,Saudi Arabia,SA,SAU,Ar Riyāḑ,primary,6881000,1682999334
Dar es Salaam,Dar es Salaam,-6.8000,39.2833,Tanzania,TZ,TZA,Dar es Salaam,primary,6698000,1834843853
Zunyi,Zunyi,27.7050,106.9336,China,CN,CHN,Guizhou,,6127009,1156539782
Jieyang,Jieyang,23.5533,116.3649,China,CN,CHN,Guangdong,minor,6089400,1156260378
Lu’an,Lu'an,31.7542,116.5078,China,CN,CHN,Anhui,minor,6090000,1156499624
Yichun,Yichun,27.8041,114.3830,China,CN,CHN,Jiangxi,minor,6048700,1156229590
Madrid,Madrid,40.4167,-3.7167,Spain,ES,ESP,Madrid,primary,6026000,1724616994
Changde,Changde,29.0397,111.6839,China,CN,CHN,Hunan,minor,6011000,1156449091
Taizhou,Taizhou,28.6583,121.4221,China,CN,CHN,Zhejiang,minor,5968838,1156322307
Liaocheng,Liaocheng,36.4500,115.9833,China,CN,CHN,Shandong,minor,5955300,1156006600
Qujing,Qujing,25.5102,103.8029,China,CN,CHN,Yunnan,,5855055,1156747998
Baghdad,Baghdad,33.3500,44.4167,Iraq,IQ,IRQ,Baghdād,primary,5796000,1368596238
Qingdao,Qingdao,36.1167,120.4000,China,CN,CHN,Shandong,minor,5775000,1156112588
Singapore,Singapore,1.3000,103.8000,Singapore,SG,SGP,Central Singapore,primary,5745000,1702341327
Dazhou,Dazhou,31.2152,107.4947,China,CN,CHN,Sichuan,minor,5693000,1156834076
Suzhou,Suzhou,33.6333,116.9683,China,CN,CHN,Anhui,,5690000,1156871297
Xiangyang,Xiangyang,32.0654,112.1531,China,CN,CHN,Hubei,minor,5680000,1156107325
Nairobi,Nairobi,-1.2864,36.8172,Kenya,KE,KEN,Nairobi City,primary,5545000,1404000661
Nangandao,Nangandao,35.2992,113.8851,China,CN,CHN,Henan,minor,5516000,1156127660
Ankara,Ankara,39.9300,32.8500,Turkey,TR,TUR,Ankara,primary,5503985,1792572891
Tai’an,Tai'an,36.2001,117.0809,China,CN,CHN,Shandong,,5499000,1156095188
Yulin,Yulin,22.6293,110.1507,China,CN,CHN,Guangxi,,5487368,1156901312
Dezhou,Dezhou,37.4513,116.3105,China,CN,CHN,Shandong,minor,5470000,1156524080
Yongzhou,Yongzhou,26.4515,111.5953,China,CN,CHN,Hunan,,5446100,1156694479
Rangoon,Rangoon,16.8000,96.1500,Myanmar,MM,MMR,Yangon,primary,5430000,1104616656
Toronto,Toronto,43.7417,-79.3733,Canada,CA,CAN,Ontario,,5429524,1124279679
Suihua,Suihua,46.6384,126.9808,China,CN,CHN,Heilongjiang,minor,5420000,1156235493
Washington,Washington,38.9047,-77.0163,United States,US,USA,District of Columbia,primary,5379184,1840006060
Qiqihar,Qiqihar,47.3398,123.9512,China,CN,CHN,Heilongjiang,minor,5367003,1156775905
Jinhua,Jinhua,29.1046,119.6494,China,CN,CHN,Zhejiang,minor,5361572,1156547188
Shantou,Shantou,23.3735,116.6941,China,CN,CHN,Guangdong,minor,5319028,1156457499
Sydney,Sydney,-33.8650,151.2094,Australia,AU,AUS,New South Wales,admin,5312163,1036074917
Weinan,Weinan,34.4996,109.4684,China,CN,CHN,Shaanxi,minor,5300000,1156903687
Suqian,Suqian,33.9331,118.2831,China,CN,CHN,Jiangsu,,5290000,1156212349
Suzhou,Suzhou,31.3040,120.6164,China,CN,CHN,Jiangsu,minor,5250000,1156029196
Fuzhou,Fuzhou,26.0769,119.2917,China,CN,CHN,Fujian,admin,5245000,1156188037
Zhaotong,Zhaotong,27.3328,103.7144,China,CN,CHN,Yunnan,,5213521,1156924687
Pudong,Pudong,31.2231,121.5397,China,CN,CHN,Shanghai,minor,5187200,1156644508
Zhangzhou,Zhangzhou,24.5093,117.6612,China,CN,CHN,Fujian,minor,5140000,1156241637
Bozhou,Bozhou,33.8626,115.7742,China,CN,CHN,Anhui,,5100000,1156356860
Nanchang,Nanchang,28.6842,115.8872,China,CN,CHN,Jiangxi,admin,5042565,1156198892
Xianyang,Xianyang,34.3500,108.7167,China,CN,CHN,Shaanxi,minor,5040000,1156120117
Taizhou,Taizhou,32.4831,119.9000,China,CN,CHN,Jiangsu,minor,5031000,1156119229
Abidjan,Abidjan,5.3364,-4.0267,Côte D’Ivoire,CI,CIV,Abidjan,primary,4980000,1384207980
Huaihua,Huaihua,27.5494,109.9592,China,CN,CHN,Hunan,,4983300,1156353465
Ji’an,Ji'an,27.1172,114.9793,China,CN,CHN,Jiangxi,minor,4956600,1156278215
Mianyang,Mianyang,31.4669,104.7385,China,CN,CHN,Sichuan,minor,4945000,1156417758
Xiaoganzhan,Xiaoganzhan,30.9273,113.9110,China,CN,CHN,Hubei,,4921000,1156002290
Shaoxing,Shaoxing,30.0000,120.5833,China,CN,CHN,Zhejiang,minor,4912239,1156893449
Yuncheng,Yuncheng,35.0304,110.9980,China,CN,CHN,Shanxi,,4860000,1156705644
Pingdingshan,Pingdingshan,33.7350,113.2999,China,CN,CHN,Henan,,4838000,1156735124
Huizhou,Huizhou,23.1115,114.4152,China,CN,CHN,Guangdong,minor,4830000,1156203268
Huai’an,Huai'an,33.5000,119.1331,China,CN,CHN,Jiangsu,,4799889,1156634228
Xinpu,Xinpu,34.5906,119.1801,China,CN,CHN,Jiangsu,minor,4790000,1156035381
Chenzhou,Chenzhou,25.7989,113.0267,China,CN,CHN,Hunan,minor,4754600,1156291915
Guilin,Guilin,25.2667,110.2833,China,CN,CHN,Guangxi,minor,4747963,1156235364
Jiujiang,Jiujiang,29.7048,116.0021,China,CN,CHN,Jiangxi,minor,4728778,1156206041
Anqing,Anqing,30.5000,117.0333,China,CN,CHN,Anhui,minor,4723000,1156238875
Huanglongsi,Huanglongsi,34.7936,114.3403,China,CN,CHN,Henan,,4676159,1156198356
Jiangmen,Jiangmen,22.5833,113.0833,China,CN,CHN,Guangdong,minor,4630300,1156105613
Changzhou,Changzhou,31.8122,119.9692,China,CN,CHN,Jiangsu,minor,4592431,1156185511
Wuxi,Wuxi,31.5667,120.2833,China,CN,CHN,Jiangsu,minor,4580000,1156019650
Zibo,Zibo,36.7831,118.0497,China,CN,CHN,Shandong,,4530597,1156381094
Jiaxing,Jiaxing,30.7522,120.7500,China,CN,CHN,Zhejiang,minor,4501657,1156491661
Dalian,Dalian,38.9000,121.6000,China,CN,CHN,Liaoning,,4480000,1156175472
Hengshui,Hengshui,37.7348,115.6860,China,CN,CHN,Hebei,,4472000,1156803028
Harbin,Harbin,45.7500,126.6333,China,CN,CHN,Heilongjiang,admin,4458000,1156241528
Yangzhou,Yangzhou,32.3912,119.4363,China,CN,CHN,Jiangsu,,4459000,1156818601
Yibin,Yibin,28.7596,104.6400,China,CN,CHN,Sichuan,minor,4456000,1156107603
Johannesburg,Johannesburg,-26.2044,28.0416,South Africa,ZA,ZAF,Gauteng,admin,4434827,1710550792
Yiyang,Yiyang,28.5833,112.3333,China,CN,CHN,Hunan,,4420700,1156218615
Meizhou,Meizhou,24.2998,116.1191,China,CN,CHN,Guangdong,minor,4378800,1156361028
Chifeng,Chifeng,42.2663,118.9223,China,CN,CHN,Inner Mongolia,minor,4376600,1156277458
Casablanca,Casablanca,33.5992,-7.6200,Morocco,MA,MAR,Casablanca-Settat,admin,4370000,1504175315
Guiyang,Guiyang,26.5794,106.7078,China,CN,CHN,Guizhou,admin,4365000,1156932620
Langfang,Langfang,39.5196,116.7006,China,CN,CHN,Hebei,,4358839,1156109017
Zhangjiakou,Zhangjiakou,40.8108,114.8811,China,CN,CHN,Hebei,,4345491,1156800221
Linfen,Linfen,36.0812,111.5087,China,CN,CHN,Shanxi,,4316610,1156416074
Wenzhou,Wenzhou,27.9991,120.6561,China,CN,CHN,Zhejiang,,4310000,1156188829
Luzhou,Luzhou,28.8918,105.4409,China,CN,CHN,Sichuan,minor,4291000,1156582079
Jiangguanchi,Jiangguanchi,34.0244,113.8201,China,CN,CHN,Henan,minor,4289000,1156235735
Neijiang,Neijiang,29.5872,105.0635,China,CN,CHN,Sichuan,minor,4238000,1156516335
Yanjiang,Yanjiang,30.1256,104.6397,China,CN,CHN,Sichuan,minor,4217000,1156217114
Zhaoqing,Zhaoqing,23.0500,112.4667,China,CN,CHN,Guangdong,minor,4151700,1156170144
Xiaoxita,Xiaoxita,30.7083,111.2803,China,CN,CHN,Hubei,minor,4137900,1156764447
Guigang,Guigang,23.0961,109.6092,China,CN,CHN,Guangxi,,4118808,1156895251
Xiamen,Xiamen,24.4797,118.0819,China,CN,CHN,Fujian,minor,4110000,1156212809
Chuzhou,Chuzhou,32.3062,118.3115,China,CN,CHN,Anhui,,4110000,1156036420
Fuzhou,Fuzhou,27.9814,116.3577,China,CN,CHN,Jiangxi,,4047200,1156915325
Zhuzhou,Zhuzhou,27.8407,113.1469,China,CN,CHN,Hunan,minor,4028500,1156041962
Amman,Amman,31.9500,35.9333,Jordan,JO,JOR,Al ‘Āşimah,primary,4007526,1400522593
Loudi,Loudi,27.7378,111.9974,China,CN,CHN,Hunan,,3941300,1156010654
Deyang,Deyang,31.1289,104.3950,China,CN,CHN,Sichuan,minor,3877000,1156127147
Qingyuan,Qingyuan,23.6842,113.0507,China,CN,CHN,Guangdong,minor,3874000,1156135890
Wuhu,Wuhu,31.3340,118.3622,China,CN,CHN,Anhui,minor,3842100,1156315512
Hechi,Hechi,23.0965,109.6091,China,CN,CHN,Guangxi,,3830000,1156868701
Binzhou,Binzhou,37.3806,118.0125,China,CN,CHN,Shandong,,3779200,1156564962
Liuzhou,Liuzhou,24.3264,109.4281,China,CN,CHN,Guangxi,minor,3758704,1156360785
Baojishi,Baojishi,34.3609,107.1751,China,CN,CHN,Shaanxi,,3738700,1156101096
Guang’an,Guang'an,30.4673,106.6336,China,CN,CHN,Sichuan,minor,3723000,1156377302
Hanzhong,Hanzhong,33.0794,107.0260,China,CN,CHN,Shaanxi,,3700000,1156382678
Kabul,Kabul,34.5328,69.1658,Afghanistan,AF,AFG,Kābul,primary,3678034,1004993580
Zaozhuang,Zaozhuang,34.8667,117.5500,China,CN,CHN,Shandong,,3650000,1156796454
Berlin,Berlin,52.5167,13.3833,Germany,DE,DEU,Berlin,primary,3644826,1276451290
Anshan,Anshan,41.1066,122.9895,China,CN,CHN,Liaoning,,3645884,1156901825
Lanzhou,Lanzhou,36.0617,103.8318,China,CN,CHN,Gansu,admin,3616163,1156280566
Chengde,Chengde,40.9739,117.9322,China,CN,CHN,Hebei,,3610000,1156197800
Puyang,Puyang,35.7639,115.0300,China,CN,CHN,Henan,minor,3580000,1156431924
Suining,Suining,30.5098,105.5737,China,CN,CHN,Sichuan,minor,3556000,1156655650
Jiaozuo,Jiaozuo,35.2290,113.2304,China,CN,CHN,Henan,,3540101,1156157854
Bengbu,Bengbu,32.9354,117.3531,China,CN,CHN,Anhui,,3525000,1156440668
Baicheng,Baicheng,23.9010,106.6194,China,CN,CHN,Guangxi,minor,3466758,1156981113
Algiers,Algiers,36.7764,3.0586,Algeria,DZ,DZA,Alger,primary,3415811,1012973369
Qincheng,Qincheng,34.5809,105.7311,China,CN,CHN,Gansu,minor,3400000,1156104017
Taiyuan,Taiyuan,37.8733,112.5425,China,CN,CHN,Shanxi,admin,3398000,1156632014
Shiyan,Shiyan,32.6351,110.7755,China,CN,CHN,Hubei,minor,3398000,1156383921
Chaoyang,Chaoyang,41.5757,120.4486,China,CN,CHN,Liaoning,,3370000,1156706927
Hechi,Hechi,24.6928,108.0850,China,CN,CHN,Guangxi,,3369251,1156167204
Leshan,Leshan,29.5854,103.7575,China,CN,CHN,Sichuan,,3364000,1156203130
Yulinshi,Yulinshi,38.2655,109.7388,China,CN,CHN,Shaanxi,,3328000,1156280672
Siping,Siping,43.1715,124.3644,China,CN,CHN,Jilin,,3300000,1156063295
Zhongshan,Zhongshan,22.5333,113.3500,China,CN,CHN,Guangdong,minor,3260000,1156579621
Changzhi,Changzhi,36.1953,113.0970,China,CN,CHN,Shanxi,minor,3230000,1156057944
Santa Cruz,Santa Cruz,-17.7892,-63.1975,Bolivia,BO,BOL,Santa Cruz,admin,3151676,1068129363
Qinhuangdao,Qinhuangdao,39.9398,119.5881,China,CN,CHN,Hebei,,3146300,1156091093
Bazhou,Bazhou,31.8576,106.7559,China,CN,CHN,Sichuan,minor,3134000,1156271365
Zhenjiang,Zhenjiang,32.2109,119.4551,China,CN,CHN,Jiangsu,minor,3113384,1156934125
Ürümqi,Urumqi,43.8225,87.6125,China,CN,CHN,Xinjiang,admin,3112559,1156051276
Tongliao,Tongliao,43.6172,122.2640,China,CN,CHN,Inner Mongolia,minor,3094600,1156358686
Heyuan,Heyuan,23.7503,114.6923,China,CN,CHN,Guangdong,minor,3093900,1156665165
Tongren,Tongren,27.7233,109.1885,China,CN,CHN,Guizhou,,3093204,1156803442
Qinzhou,Qinzhou,21.9500,108.6167,China,CN,CHN,Guangxi,minor,3079721,1156106602
Xinzhou,Xinzhou,38.4178,112.7233,China,CN,CHN,Shanxi,minor,3067501,1156617534
Addis Ababa,Addis Ababa,9.0272,38.7369,Ethiopia,ET,ETH,Ādīs Ābeba,primary,3041002,1231824991
Meishan,Meishan,30.0575,103.8381,China,CN,CHN,Sichuan,,3020000,1156185501
Brasília,Brasilia,-15.7939,-47.8828,Brazil,BR,BRA,Distrito Federal,primary,3015268,1076144436
Jinzhou,Jinzhou,41.1144,121.1292,China,CN,CHN,Liaoning,,3000000,1156157151
Tieling,Tieling,42.2841,123.8365,China,CN,CHN,Liaoning,,3000000,1156089994
Shaoguan,Shaoguan,24.8011,113.5927,China,CN,CHN,Guangdong,minor,2997600,1156617066
Kuwait City,Kuwait City,29.3750,47.9800,Kuwait,KW,KWT,Al ‘Āşimah,primary,2989000,1414102075
Shanwei,Shanwei,22.7664,115.3331,China,CN,CHN,Guangdong,minor,2993600,1156939010
Kyiv,Kyiv,50.4500,30.5236,Ukraine,UA,UKR,"Kyyiv, Misto",primary,2963199,1804382913
Sanaa,Sanaa,15.3500,44.2000,Yemen,YE,YEM,Amānat al ‘Āşimah,primary,2957000,1887750814
Dingxi,Dingxi,35.5806,104.6263,China,CN,CHN,Gansu,minor,2930000,1156518274
Ningde,Ningde,26.6667,119.5167,China,CN,CHN,Fujian,minor,2910000,1156909802
Daqing,Daqing,46.5979,125.0080,China,CN,CHN,Heilongjiang,,2904532,1156403962
Putian,Putian,25.4394,119.0103,China,CN,CHN,Fujian,minor,2900000,1156811601
Huzhou,Huzhou,30.8695,120.0958,China,CN,CHN,Zhejiang,minor,2893542,1156335543
Wuzhou,Wuzhou,23.4833,111.3167,China,CN,CHN,Guangxi,minor,2882200,1156620133
Xiangtan,Xiangtan,27.8431,112.9228,China,CN,CHN,Hunan,,2881500,1156195684
Rome,Rome,41.8931,12.4828,Italy,IT,ITA,Lazio,primary,2872800,1380382862
La Paz,La Paz,-16.4942,-68.1475,Bolivia,BO,BOL,La Paz,primary,2867504,1068000064
Pyongyang,Pyongyang,39.0300,125.7300,"North Korea",KP,PRK,P’yŏngyang,primary,2863000,1408738594
Taichung,Taichung,24.1500,120.6667,Taiwan,TW,TWN,Taichung,admin,2803894,1158689622
Zigong,Zigong,29.3498,104.7645,China,CN,CHN,Sichuan,,2800000,1156023354
Mudanjiang,Mudanjiang,44.5861,129.5997,China,CN,CHN,Heilongjiang,minor,2790000,1156249698
Huludao,Huludao,40.7094,120.8378,China,CN,CHN,Liaoning,minor,2787000,1156580218
Guayaquil,Guayaquil,-2.1833,-79.8833,Ecuador,EC,ECU,Guayas,admin,2723665,1218802178
Rizhao,Rizhao,35.4164,119.4331,China,CN,CHN,Shandong,minor,2720000,1156032841
Baotou,Baotou,40.6562,109.8345,China,CN,CHN,Inner Mongolia,,2700000,1156032751
Taipei,Taipei,25.0478,121.5319,Taiwan,TW,TWN,Taipei,primary,2684567,1158881289
Nanping,Nanping,26.6448,118.1728,China,CN,CHN,Fujian,minor,2690000,1156927445
Chaozhou,Chaozhou,23.6700,116.6300,China,CN,CHN,Guangdong,minor,2656600,1156549118
Longyan,Longyan,25.0881,117.0244,China,CN,CHN,Fujian,minor,2640000,1156012979
Hohhot,Hohhot,40.8151,111.6629,China,CN,CHN,Inner Mongolia,admin,2635000,1156210167
Antananarivo,Antananarivo,-18.9386,47.5214,Madagascar,MG,MDG,Antananarivo,primary,2610000,1450978461
Longba,Longba,33.5350,105.3490,China,CN,CHN,Gansu,,2614000,1156633259
Weihai,Weihai,37.5000,122.1000,China,CN,CHN,Shandong,minor,2596753,1156473300
Santo Domingo,Santo Domingo,18.4764,-69.8933,Dominican Republic,DO,DOM,Ozama,primary,2581827,1214636202
Xuanzhou,Xuanzhou,30.9475,118.7518,China,CN,CHN,Anhui,,2580000,1156424311
Sanming,Sanming,26.2658,117.6302,China,CN,CHN,Fujian,minor,2580000,1156294429
Yangjiang,Yangjiang,21.8556,111.9627,China,CN,CHN,Guangdong,minor,2555600,1156123172
Yunfu,Yunfu,22.9242,112.0353,China,CN,CHN,Guangdong,minor,2526900,1156057251
Baoshan,Baoshan,25.1211,99.1690,China,CN,CHN,Yunnan,,2506491,1156546994
Dubai,Dubai,25.2697,55.3094,United Arab Emirates,AE,ARE,Dubayy,admin,2502715,1784736618
Luohe,Luohe,33.5830,114.0109,China,CN,CHN,Henan,minor,2500000,1156330876
Qinbaling,Qinbaling,35.7278,107.6400,China,CN,CHN,Gansu,,2500000,1156032582
Guangyuan,Guangyuan,32.4353,105.8398,China,CN,CHN,Sichuan,,2484122,1156084562
Huangshi,Huangshi,30.2018,115.0326,China,CN,CHN,Hubei,minor,2471700,1156234290
Guatemala City,Guatemala City,14.6099,-90.5252,Guatemala,GT,GTM,Guatemala,primary,2450212,1320197916
Yaoundé,Yaounde,3.8578,11.5181,Cameroon,CM,CMR,Centre,primary,2440462,1120298240
Jilin,Jilin,43.8500,126.5500,China,CN,CHN,Jilin,,2396000,1156646448
Lianshan,Lianshan,40.7503,120.8300,China,CN,CHN,Liaoning,minor,2426000,1156046704
Lincang,Lincang,23.8864,100.0871,China,CN,CHN,Yunnan,,2429497,1156044130
Tashkent,Tashkent,41.3000,69.2667,Uzbekistan,UZ,UZB,Toshkent,primary,2424100,1860331871
Huainan,Huainan,32.4831,117.0164,China,CN,CHN,Anhui,,2409000,1156877299
Dandong,Dandong,40.1167,124.3833,China,CN,CHN,Liaoning,,2400000,1156178316
Shangzhou,Shangzhou,33.8680,109.9244,China,CN,CHN,Shaanxi,,2400000,1156091241
Jiamusi,Jiamusi,46.8081,130.3653,China,CN,CHN,Heilongjiang,minor,2360000,1156350864
Accra,Accra,5.6037,-0.1870,Ghana,GH,GHA,Greater Accra,primary,2291352,1288299415
Yuxi,Yuxi,24.3495,102.5432,China,CN,CHN,Yunnan,minor,2303518,1156682309
Anshun,Anshun,26.2456,105.9340,China,CN,CHN,Guizhou,,2297612,1156415948
Yingkou,Yingkou,40.6653,122.2297,China,CN,CHN,Liaoning,minor,2220000,1156257074
Sanmenxia,Sanmenxia,34.7736,111.1950,China,CN,CHN,Henan,,2213000,1156529682
Ma’anshan,Ma'anshan,31.7135,118.3605,China,CN,CHN,Anhui,minor,2202899,1156847452
Pingliang,Pingliang,35.5412,106.6819,China,CN,CHN,Gansu,minor,2190000,1156216904
Quzhou,Quzhou,28.9545,118.8763,China,CN,CHN,Zhejiang,,2185000,1156180376
Baku,Baku,40.3667,49.8352,Azerbaijan,AZ,AZE,Bakı,primary,2181800,1031946365
Gaoping,Gaoping,30.7804,106.1300,China,CN,CHN,Sichuan,minor,2174000,1156522457
Huaibei,Huaibei,33.9562,116.7890,China,CN,CHN,Anhui,,2158000,1156142626
Xining,Xining,36.6239,101.7787,China,CN,CHN,Qinghai,admin,2154000,1156081448
Harare,Harare,-17.8292,31.0522,Zimbabwe,ZW,ZWE,Harare,primary,2150000,1716196799
Yan’an,Yan'an,36.5952,109.4863,China,CN,CHN,Shaanxi,,2150000,1156546342
Havana,Havana,23.1367,-82.3589,Cuba,CU,CUB,La Habana,primary,2141652,1192752771
Phnom Penh,Phnom Penh,11.5696,104.9210,Cambodia,KH,KHM,Phnom Penh,primary,2129371,1116260534
Mogadishu,Mogadishu,2.0408,45.3425,Somalia,SO,SOM,Banaadir,primary,2120000,1706893395
Jincheng,Jincheng,35.4906,112.8483,China,CN,CHN,Shanxi,minor,2120000,1156163376
Puning,Puning,23.2993,116.1586,China,CN,CHN,Guangdong,,2118200,1156756494
Lishui,Lishui,28.4500,119.9167,China,CN,CHN,Zhejiang,minor,2116957,1156858793
Qingyang,Qingyang,24.8141,118.5792,China,CN,CHN,Fujian,minor,2111000,1156273372
Laibin,Laibin,23.7333,109.2333,China,CN,CHN,Guangxi,,2099711,1156925734
Fushun,Fushun,41.8708,123.8917,China,CN,CHN,Liaoning,,2024000,1156857743
Bamako,Bamako,12.6458,-7.9922,Mali,ML,MLI,Bamako,primary,2009109,1466965925
Quito,Quito,-0.2186,-78.5097,Ecuador,EC,ECU,Pichincha,primary,2011388,1218441993
Minsk,Minsk,53.9022,27.5618,Belarus,BY,BLR,Minsk,primary,2009786,1112348503
Pingxiang,Pingxiang,27.6333,113.8500,China,CN,CHN,Jiangxi,minor,2001027,1156066465
Chongzuo,Chongzuo,22.4167,107.3667,China,CN,CHN,Guangxi,minor,1994285,1156438670
Hezhou,Hezhou,24.4164,111.5478,China,CN,CHN,Guangxi,minor,1954072,1156459799
Jixi,Jixi,45.2937,130.9650,China,CN,CHN,Heilongjiang,minor,1950000,1156393765
Caracas,Caracas,10.5000,-66.9333,Venezuela,VE,VEN,Distrito Capital,primary,1943901,1862748204
Fuxin,Fuxin,42.0127,121.6486,China,CN,CHN,Liaoning,,1930000,1156141954
Aleppo,Aleppo,36.2000,37.1500,Syria,SY,SYR,Ḩalab,admin,1916781,1760366651
Almaty,Almaty,43.2500,76.9000,Kazakhstan,KZ,KAZ,Almaty,,1916822,1398351701
Vienna,Vienna,48.2083,16.3731,Austria,AT,AUT,Wien,primary,1911191,1040261752
Blantyre,Blantyre,-15.7861,35.0058,Malawi,MW,MWI,Blantyre,admin,1895973,1454145012
Zhuhai,Zhuhai,22.2769,113.5678,China,CN,CHN,Guangdong,minor,1891100,1156722242
Bucharest,Bucharest,44.4000,26.0833,Romania,RO,ROU,Bucureşti,primary,1883425,1642414442
Wuwei,Wuwei,37.9278,102.6329,China,CN,CHN,Gansu,minor,1890000,1156760291
Xiping,Xiping,40.0800,113.3000,China,CN,CHN,Shanxi,minor,1873000,1156898522
Asunción,Asuncion,-25.3000,-57.6333,Paraguay,PY,PRY,Asunción,primary,1870000,1600057911
Brazzaville,Brazzaville,-4.2667,15.2833,Congo (Brazzaville),CG,COG,Brazzaville,primary,1827000,1178340306
Liaoyang,Liaoyang,41.2643,123.1772,China,CN,CHN,Liaoning,,1800000,1156202749
Baiyin,Baiyin,36.5448,104.1766,China,CN,CHN,Gansu,minor,1799000,1156140738
Warsaw,Warsaw,52.2167,21.0333,Poland,PL,POL,Mazowieckie,primary,1790658,1616024847
Shengli,Shengli,37.4500,118.4667,China,CN,CHN,Shandong,minor,1790000,1156672254
Haikou,Haikou,20.0200,110.3200,China,CN,CHN,Hainan,admin,1776141,1156183327
Damascus,Damascus,33.5131,36.2919,Syria,SY,SYR,Dimashq,primary,1754000,1760685964
Shuyangzha,Shuyangzha,34.1299,118.7734,China,CN,CHN,Jiangsu,,1770000,1156051957
Brussels,Brussels,50.8333,4.3333,Belgium,BE,BEL,Brussels-Capital Region,primary,1743000,1056469830
Budapest,Budapest,47.4983,19.0408,Hungary,HU,HUN,Budapest,primary,1752286,1348611435
Heihe,Heihe,50.2458,127.4886,China,CN,CHN,Heilongjiang,minor,1750000,1156339225
Lusaka,Lusaka,-15.4167,28.2833,Zambia,ZM,ZMB,Lusaka,primary,1742979,1894157390
Shuozhou,Shuozhou,39.3408,112.4292,China,CN,CHN,Shanxi,minor,1714857,1156227167
Sanzhou,Sanzhou,30.8200,108.4000,China,CN,CHN,Chongqing,,1680000,1156025536
Conakry,Conakry,9.5092,-13.7122,Guinea,GN,GIN,Conakry,primary,1667864,1324568159
Kampala,Kampala,0.3136,32.5811,Uganda,UG,UGA,Kampala,primary,1659600,1800406299
Yushan,Yushan,31.3867,120.9766,China,CN,CHN,Jiangsu,minor,1651200,1156245000
Ouagadougou,Ouagadougou,12.3572,-1.5353,Burkina Faso,BF,BFA,Centre,primary,1626950,1854029208
Yinchuan,Yinchuan,38.4795,106.2254,China,CN,CHN,Ningxia,admin,1616000,1156359072
Chengtangcun,Chengtangcun,35.0833,117.1500,China,CN,CHN,Shandong,,1603659,1156883901
Jingdezhen,Jingdezhen,29.2942,117.2036,China,CN,CHN,Jiangxi,minor,1587477,1156038165
Benxi,Benxi,41.2920,123.7610,China,CN,CHN,Liaoning,,1567000,1156097909
Zhangjiajie,Zhangjiajie,29.1255,110.4844,China,CN,CHN,Hunan,minor,1549200,1156072884
Beihai,Beihai,21.4667,109.1000,China,CN,CHN,Guangxi,,1539251,1156421449
Shuangyashan,Shuangyashan,46.6388,131.1545,China,CN,CHN,Heilongjiang,,1530000,1156245904
Yucheng,Yucheng,29.9888,103.0007,China,CN,CHN,Sichuan,minor,1512000,1156817119
Changshu,Changshu,31.6500,120.7333,China,CN,CHN,Jiangsu,,1510100,1156901538
Lianjiang,Lianjiang,21.6146,110.2794,China,CN,CHN,Guangdong,,1509400,1156944106
Ximeicun,Ximeicun,24.9633,118.3811,China,CN,CHN,Fujian,,1508000,1156173813
Jianguang,Jianguang,28.1958,115.7833,China,CN,CHN,Jiangxi,,1507402,1156545200
Xushan,Xushan,30.1697,121.2665,China,CN,CHN,Zhejiang,minor,1502000,1156046916
Guiping,Guiping,23.4000,110.0833,China,CN,CHN,Guangxi,minor,1496904,1156165517
Leizhou,Leizhou,20.9147,110.0806,China,CN,CHN,Guangdong,,1494700,1156863840
Auckland,Auckland,-36.8500,174.7833,New Zealand,NZ,NZL,Auckland,admin,1470100,1554435911
Huangshan,Huangshan,29.7132,118.3151,China,CN,CHN,Anhui,minor,1470000,1156527426
Huazhou,Huazhou,32.6889,112.0447,China,CN,CHN,Henan,minor,1468061,1156796734
Pizhou,Pizhou,34.3422,118.0097,China,CN,CHN,Jiangsu,,1458038,1156114238
Yangshe,Yangshe,31.8775,120.5512,China,CN,CHN,Jiangsu,minor,1432044,1156203000
Chizhou,Chizhou,30.6583,117.4849,China,CN,CHN,Anhui,minor,1430000,1156131504
Guyuan,Guyuan,36.0080,106.2782,China,CN,CHN,Ningxia,,1426000,1156817541
Rui’an,Rui'an,27.7780,120.6526,China,CN,CHN,Zhejiang,,1424667,1156993705
Muscat,Muscat,23.6139,58.5922,Oman,OM,OMN,Masqaţ,primary,1421409,1512035506
Hebi,Hebi,35.7497,114.2887,China,CN,CHN,Henan,,1419000,1156114258
Gaozhou,Gaozhou,21.9135,110.8481,China,CN,CHN,Guangdong,,1414100,1156785303
The Hague,The Hague,52.0767,4.2986,Netherlands,NL,NLD,Zuid-Holland,primary,1406000,1528799905
Ulaanbaatar,Ulaanbaatar,47.9203,106.9172,Mongolia,MN,MNG,Ulaanbaatar,primary,1396288,1496024767
Yueqing,Yueqing,28.1188,120.9621,China,CN,CHN,Zhejiang,,1389332,1156900058
Belgrade,Belgrade,44.8167,20.4667,Serbia,RS,SRB,Beograd,primary,1378682,1688374696
Pingdu,Pingdu,36.7833,119.9556,China,CN,CHN,Shandong,,1378900,1156157078
Yutan,Yutan,28.3147,112.5540,China,CN,CHN,Hunan,minor,1368117,1156592042
Wenling,Wenling,28.3797,121.3718,China,CN,CHN,Zhejiang,,1366794,1156052493
Sofia,Sofia,42.6979,23.3217,Bulgaria,BG,BGR,Sofia-Grad,primary,1355142,1100762037
Prague,Prague,50.0833,14.4167,Czechia,CZ,CZE,"Praha, Hlavní Město",primary,1335084,1203744823
Liangshi,Liangshi,27.2578,111.7351,China,CN,CHN,Hunan,,1335900,1156366507
Montevideo,Montevideo,-34.8667,-56.1667,Uruguay,UY,URY,Montevideo,primary,1319108,1858107000
Fuqing,Fuqing,25.7232,119.3735,China,CN,CHN,Fujian,minor,1316000,1156893569
Xintai,Xintai,35.9100,117.7800,China,CN,CHN,Shandong,,1315942,1156761230
Doha,Doha,25.3000,51.5333,Qatar,QA,QAT,Ad Dawḩah,primary,1312947,1634459660
Yushu,Yushu,44.8249,126.5451,China,CN,CHN,Jilin,,1304436,1156326773
Rongcheng,Rongcheng,26.2312,104.0966,China,CN,CHN,Yunnan,,1302891,1156122888
Huazhou,Huazhou,21.6540,110.6294,China,CN,CHN,Guangdong,,1302100,1156282637
Yangquan,Yangquan,37.8576,113.5762,China,CN,CHN,Shanxi,minor,1300000,1156157844
Haicheng,Haicheng,40.8523,122.7474,China,CN,CHN,Liaoning,minor,1293877,1156052713
Yingtan,Yingtan,28.2333,117.0000,China,CN,CHN,Jiangxi,,1288615,1156301061
Huaiyin,Huaiyin,33.5800,119.0300,China,CN,CHN,Jiangsu,,1264000,1156662372
Wuzhong,Wuzhong,37.9874,106.1919,China,CN,CHN,Ningxia,minor,1284000,1156139322
Zhangye,Zhangye,38.9355,100.4553,China,CN,CHN,Gansu,minor,1270000,1156180353
Rucheng,Rucheng,32.3852,120.5634,China,CN,CHN,Jiangsu,minor,1267066,1156323529
Comayagüela,Comayaguela,14.0833,-87.2167,Honduras,HN,HND,Francisco Morazán,,1250000,1340762485
Shaoyang,Shaoyang,32.9387,119.8404,China,CN,CHN,Jiangsu,minor,1253548,1156668366
Yichun,Yichun,47.7235,128.8893,China,CN,CHN,Heilongjiang,minor,1250000,1156757274
Laiwu,Laiwu,36.1833,117.6667,China,CN,CHN,Shandong,,1248636,1156207332
Jingling,Jingling,30.6667,113.1667,China,CN,CHN,Hubei,,1247400,1156060544
Dayan,Dayan,26.8808,100.2208,China,CN,CHN,Yunnan,,1244769,1156828380
Jiangyin,Jiangyin,31.9087,120.2653,China,CN,CHN,Jiangsu,,1241045,1156033234
Yongcheng,Yongcheng,33.9317,116.4459,China,CN,CHN,Henan,,1240382,1156841802
Abuja,Abuja,9.0556,7.4914,Nigeria,NG,NGA,Federal Capital Territory,primary,1235880,1566342270
Yiwu,Yiwu,29.3081,120.0698,China,CN,CHN,Zhejiang,minor,1234015,1156078044
Beidao,Beidao,34.6000,105.9200,China,CN,CHN,Gansu,minor,1225000,1156137209
Shuangshui,Shuangshui,26.5944,104.8333,China,CN,CHN,Guizhou,,1221000,1156070389
Maputo,Maputo,-25.9153,32.5764,Mozambique,MZ,MOZ,Maputo,primary,1191613,1508074843
Xinyu,Xinyu,27.7950,114.9242,China,CN,CHN,Jiangxi,minor,1186700,1156138735
Pikine,Pikine,14.7500,-17.4000,Senegal,SN,SEN,Dakar,,1170791,1686165071
Dublin,Dublin,53.3497,-6.2603,Ireland,IE,IRL,Dublin,primary,1173179,1372595407
Guankou,Guankou,28.1417,113.6250,China,CN,CHN,Hunan,minor,1168056,1156249346
Dingzhou,Dingzhou,38.5158,114.9845,China,CN,CHN,Hebei,,1165182,1156656582
Lianyuan,Lianyuan,27.6961,111.6659,China,CN,CHN,Hunan,minor,1162928,1156490109
Rongcheng,Rongcheng,29.8239,112.9019,China,CN,CHN,Hubei,minor,1162770,1156102432
Kaiyuan,Kaiyuan,36.0656,113.8153,China,CN,CHN,Henan,minor,1160000,1156441554
Nay Pyi Taw,Nay Pyi Taw,19.7475,96.1150,Myanmar,MM,MMR,Nay Pyi Taw,primary,1160242,1104838105
Dakar,Dakar,14.7319,-17.4572,Senegal,SN,SEN,Dakar,primary,1146053,1686604760
Zhuji,Zhuji,29.7169,120.2314,China,CN,CHN,Zhejiang,minor,1157938,1156504227
Kigali,Kigali,-1.9536,30.0606,Rwanda,RW,RWA,Kigali,primary,1156663,1646923541
Leiyang,Leiyang,26.4179,112.8457,China,CN,CHN,Hunan,minor,1151554,1156057789
Dadukou,Dadukou,26.5849,101.7149,China,CN,CHN,Sichuan,minor,1144000,1156901342
Xiantao,Xiantao,30.3833,113.4000,China,CN,CHN,Hubei,,1140100,1156216927
Yingchuan,Yingchuan,34.1511,113.4733,China,CN,CHN,Henan,minor,1131896,1156748426
Tegucigalpa,Tegucigalpa,14.0942,-87.2067,Honduras,HN,HND,Francisco Morazán,primary,1126534,1340344059
Tripoli,Tripoli,32.8752,13.1875,Libya,LY,LBY,Ţarābulus,primary,1126000,1434201852
Tbilisi,Tbilisi,41.7225,44.7925,Georgia,GE,GEO,Tbilisi,primary,1118035,1268203191
N’Djamena,N'Djamena,12.1100,15.0500,Chad,TD,TCD,Ville de N’Djaména,primary,1092066,1148708596
Yerevan,Yerevan,40.1814,44.5144,Armenia,AM,ARG,Yerevan,primary,1075800,1051074169
Nur-Sultan,Nur-Sultan,51.1333,71.4333,Kazakhstan,KZ,KAZ,Astana,primary,1078362,1398516045
Nouakchott,Nouakchott,18.0858,-15.9785,Mauritania,MR,MRT,,primary,1077169,1478414984
Tunis,Tunis,36.8008,10.1800,Tunisia,TN,TUN,Tunis,primary,1056247,1788742103
Bishkek,Bishkek,42.8667,74.5667,Kyrgyzstan,KG,KGZ,Bishkek,primary,1027200,1417191971
Ashgabat,Ashgabat,37.9500,58.3833,Turkmenistan,TM,TKM,Ahal,primary,1031992,1795049992
Niamey,Niamey,13.5086,2.1111,Niger,NE,NER,Niamey,primary,1026848,1562932886
Managua,Managua,12.1500,-86.2667,Nicaragua,NI,NIC,Managua,primary,1028808,1558296252
Monrovia,Monrovia,6.3106,-10.8047,Liberia,LR,LBR,Montserrado,primary,1021762,1430477826
Port-au-Prince,Port-au-Prince,18.5425,-72.3386,Haiti,HT,HTI,Ouest,primary,987310,1332401940
Islamabad,Islamabad,33.6989,73.0369,Pakistan,PK,PAK,Islāmābād,primary,1014825,1586306717
Kathmandu,Kathmandu,27.7167,85.3667,Nepal,NP,NPL,Bāgmatī,primary,975453,1524589448
Abu Dhabi,Abu Dhabi,24.4781,54.3686,United Arab Emirates,AE,ARE,Abū Z̧aby,primary,1000000,1784176710
Stockholm,Stockholm,59.3294,18.0686,Sweden,SE,SWE,Stockholm,primary,972647,1752425602
Asmara,Asmara,15.3333,38.9167,Eritrea,ER,ERI,Ma’ākel,primary,963000,1232791236
Freetown,Freetown,8.4833,-13.2331,Sierra Leone,SL,SLE,Western Area,primary,951000,1694085071
Jerusalem,Jerusalem,31.7833,35.2167,Israel,IL,ISR,Southern,primary,919438,1376261644
Bangui,Bangui,4.3732,18.5628,Central African Republic,CF,CAF,Bangui,primary,889231,1140080881
Panama City,Panama City,9.0000,-79.5000,Panama,PA,PAN,Panamá,primary,880691,1591672475
Amsterdam,Amsterdam,52.3667,4.8833,Netherlands,NL,NLD,Noord-Holland,primary,862965,1528355309
Lomé,Lome,6.1319,1.2228,Togo,TG,TGO,Maritime,primary,837437,1768409132
Libreville,Libreville,0.3901,9.4544,Gabon,GA,GAB,Estuaire,primary,797003,1266952885
Zagreb,Zagreb,45.8000,15.9500,Croatia,HR,HRV,"Zagreb, Grad",primary,790017,1191233290
Dushanbe,Dushanbe,38.5731,68.7864,Tajikistan,TJ,TJK,Dushanbe,primary,778500,1762930616
Lilongwe,Lilongwe,-13.9833,33.7833,Malawi,MW,MWI,Lilongwe,primary,781538,1454688499
Cotonou,Cotonou,6.4000,2.5200,Benin,BJ,BEN,Littoral,primary,762000,1204955174
Vientiane,Vientiane,17.9667,102.6000,Laos,LA,LAO,Viangchan,primary,760000,1418732714
Colombo,Colombo,6.9167,79.8333,Sri Lanka,LK,LKA,Western,primary,752993,1144251314
Pretoria,Pretoria,-25.7464,28.1881,South Africa,ZA,ZAF,Gauteng,primary,741651,1710176249
Oslo,Oslo,59.9111,10.7528,Norway,NO,NOR,Oslo,primary,693494,1578324706
Athens,Athens,37.9842,23.7281,Greece,GR,GRC,Attikí,primary,664046,1300715560
Bujumbura,Bujumbura,-3.3825,29.3611,Burundi,BI,BDI,Bujumbura Mairie,primary,658859,1108101689
Helsinki,Helsinki,60.1756,24.9342,Finland,FI,FIN,Uusimaa,primary,642045,1246177997
Skopje,Skopje,41.9833,21.4333,Macedonia,MK,MKD,Skopje,primary,640000,1807600615
Chisinau,Chisinau,47.0228,28.8353,Moldova,MD,MDA,Chişinău,primary,639000,1498011437
Riga,Riga,56.9475,24.1069,Latvia,LV,LVA,Rīga,primary,614618,1428586192
Copenhagen,Copenhagen,55.6761,12.5689,Denmark,DK,DNK,Hovedstaden,primary,602481,1208763942
Kingston,Kingston,17.9714,-76.7931,Jamaica,JM,JAM,Kingston,primary,580000,1388709177
Rabat,Rabat,34.0253,-6.8361,Morocco,MA,MAR,Rabat-Salé-Kénitra,primary,572717,1504023252
Vilnius,Vilnius,54.6833,25.2833,Lithuania,LT,LTU,Vilniaus Miestas,primary,574147,1440887149
San Salvador,San Salvador,13.6989,-89.1914,El Salvador,SV,SLV,San Salvador,primary,567698,1222647454
Djibouti,Djibouti,11.5950,43.1481,Djibouti,DJ,DJI,Djibouti,primary,562000,1262028958
Lisbon,Lisbon,38.7452,-9.1604,Portugal,PT,PRT,Lisboa,primary,506654,1620619017
Tallinn,Tallinn,59.4372,24.7450,Estonia,EE,EST,Harjumaa,primary,438341,1233260021
Cape Town,Cape Town,-33.9250,18.4250,South Africa,ZA,ZAF,Western Cape,primary,433688,1710680650
Bratislava,Bratislava,48.1447,17.1128,Slovakia,SK,SVK,Bratislavský,primary,429564,1703195001
Tirana,Tirana,41.3300,19.8200,Albania,AL,ALB,Tiranë,primary,418495,1008162156
Canberra,Canberra,-35.2931,149.1269,Australia,AU,AUS,Australian Capital Territory,primary,426704,1036142029
Wellington,Wellington,-41.2889,174.7772,New Zealand,NZ,NZL,Wellington,primary,418500,1554772152
Beirut,Beirut,33.8869,35.5131,Lebanon,LB,LBN,Beyrouth,primary,361366,1422847713
Dodoma,Dodoma,-6.1835,35.7460,Tanzania,TZ,TZA,Dodoma,primary,410956,1834288497
Bissau,Bissau,11.8592,-15.5956,Guinea-Bissau,GW,GNB,Bissau,primary,395954,1624168850
Juba,Juba,4.8500,31.6000,South Sudan,SS,SSD,Central Equatoria,primary,372410,1728444337
Port Moresby,Port Moresby,-9.4789,147.1494,Papua New Guinea,PG,PNG,National Capital,primary,364125,1598685395
Yamoussoukro,Yamoussoukro,6.8161,-5.2742,Côte D’Ivoire,CI,CIV,Yamoussoukro,primary,355573,1384683557
Maseru,Maseru,-29.3100,27.4800,Lesotho,LS,LSO,Maseru,primary,330790,1426977668
Nicosia,Nicosia,35.1725,33.3650,Cyprus,CY,CYP,Lefkosía,primary,330000,1196944155
Windhoek,Windhoek,-22.5700,17.0836,Namibia,NA,NAM,Khomas,primary,322500,1516802003
Porto-Novo,Porto-Novo,6.4833,2.6167,Benin,BJ,BEN,Ouémé,primary,300000,1204172060
Sucre,Sucre,-19.0431,-65.2592,Bolivia,BO,BOL,Chuquisaca,primary,300000,1068823873
San José,San Jose,9.9333,-84.0833,Costa Rica,CR,CRI,San José,primary,288054,1188749877
Ljubljana,Ljubljana,46.0500,14.5167,Slovenia,SI,SVN,Ljubljana,primary,286745,1705917455
Sarajevo,Sarajevo,43.8667,18.4167,Bosnia And Herzegovina,BA,BIH,"Bosnia and Herzegovina, Federation of",primary,275524,1070966777
Nassau,Nassau,25.0667,-77.3333,"Bahamas, The",BS,BHS,,primary,274400,1044318561
Bloemfontein,Bloemfontein,-29.1000,26.2167,South Africa,ZA,ZAF,Free State,primary,256185,1710495933
Fort-de-France,Fort-de-France,14.6104,-61.0800,Martinique,MQ,MTQ,,primary,253995,1474969110
Gaborone,Gaborone,-24.6569,25.9086,Botswana,BW,BWA,Gaborone,primary,231626,1072756768
Paramaribo,Paramaribo,5.8667,-55.1667,Suriname,SR,SUR,Paramaribo,primary,223757,1740518660
Dili,Dili,-8.5586,125.5736,Timor-Leste,TL,TLS,Díli,primary,222323,1626308942
Pristina,Pristina,42.6667,21.1667,Kosovo,XK,XKS,Prishtinë,primary,204725,1901760068
Georgetown,Georgetown,6.7833,-58.1667,Guyana,GY,GUY,Demerara-Mahaica,primary,200500,1328160906
Malabo,Malabo,3.7521,8.7737,Equatorial Guinea,GQ,GNQ,Bioko Norte,primary,187302,1226861333
Gibraltar,Gibraltar,36.1324,-5.3781,Gibraltar,GI,GIB,,primary,187083,1292385245
Saint-Denis,Saint-Denis,-20.8789,55.4481,Reunion,RE,REU,,primary,190047,1638024662
Male,Male,4.1750,73.5083,Maldives,MV,MDV,Maale,primary,133019,1462441685
Podgorica,Podgorica,42.4397,19.2661,Montenegro,ME,MNE,Podgorica,primary,174515,1499454516
Manama,Manama,26.2250,50.5775,Bahrain,BH,BHR,Al ‘Āşimah,primary,157474,1048989486
Port Louis,Port Louis,-20.1667,57.5000,Mauritius,MU,MUS,Port Louis,primary,149194,1480131261
Willemstad,Willemstad,12.1080,-68.9350,Curaçao,CW,CUW,,primary,150000,1531000000
New Delhi,New Delhi,28.7000,77.2000,India,IN,IND,Delhi,primary,142004,1356215164
Bern,Bern,46.9480,7.4474,Switzerland,CH,CHE,Bern,primary,133798,1756374318
Papeete,Papeete,-17.5334,-149.5667,French Polynesia,PF,PYF,Îles du Vent,primary,131695,1258907380
Reykjavík,Reykjavik,64.1475,-21.9350,Iceland,IS,ISL,,primary,128793,1352327190
Praia,Praia,14.9177,-23.5092,Cabo Verde,CV,CPV,Praia,primary,127832,1132398770
Luxembourg,Luxembourg,49.6106,6.1328,Luxembourg,LU,LUX,Luxembourg,primary,124509,1442262731
Sri Jayewardenepura Kotte,Sri Jayewardenepura Kotte,6.9000,79.9164,Sri Lanka,LK,LKA,Western,primary,115826,1144239330
Bridgetown,Bridgetown,13.0975,-59.6167,Barbados,BB,BRB,Saint Michael,primary,110000,1052274244
Moroni,Moroni,-11.7036,43.2536,Comoros,KM,COM,Grande Comore,primary,111329,1174793581
Thimphu,Thimphu,27.4833,89.6333,Bhutan,BT,BTN,Thimphu,primary,104000,1064010361
Mbabane,Mbabane,-26.3208,31.1617,Swaziland,SZ,SWZ,Hhohho,primary,94874,1748811945
Nouméa,Noumea,-22.2625,166.4443,New Caledonia,NC,NCL,Province Sud,primary,93060,1540958092
Honiara,Honiara,-9.4333,159.9500,Solomon Islands,SB,SLB,Honiara,primary,84520,1090737486
Suva,Suva,-18.1333,178.4333,Fiji,FJ,FJI,Rewa,primary,88271,1242615095
Castries,Castries,14.0167,-60.9833,Saint Lucia,LC,LCA,Castries,primary,70000,1662922505
Cayenne,Cayenne,4.9330,-52.3300,French Guiana,GF,GUF,,primary,61550,1254304969
São Tomé,Sao Tome,0.3333,6.7333,Sao Tome And Principe,ST,STP,São Tomé,primary,56166,1678301324
Port-Vila,Port-Vila,-17.7333,168.3167,Vanuatu,VU,VUT,Shefa,primary,51437,1548805075
Hamilton,Hamilton,32.2942,-64.7839,Bermuda,BM,BMU,Hamilton,primary,52320,1060000000
Bandar Seri Begawan,Bandar Seri Begawan,4.9167,114.9167,Brunei,BN,BRN,Brunei and Muara,primary,50000,1096465895
Monaco,Monaco,43.7396,7.4069,Monaco,MC,MCO,,primary,36371,1492854256
Gitega,Gitega,-3.4264,29.9306,Burundi,BI,BDI,Gitega,primary,41944,1108778000
Port of Spain,Port of Spain,10.6667,-61.5167,Trinidad And Tobago,TT,TTO,Port of Spain,primary,37074,1780670676
Apia,Apia,-13.8333,-171.8333,Samoa,WS,WSM,Tuamasaga,primary,37708,1882489296
Douglas,Douglas,54.1500,-4.4819,Isle Of Man,IM,IMN,,primary,35854,1833688345
Oranjestad,Oranjestad,12.5186,-70.0358,Aruba,AW,ABW,,primary,34980,1533513057
Saint Helier,Saint Helier,49.1833,-2.1167,Jersey,JE,JEY,,primary,33522,1832490253
Vaduz,Vaduz,47.1415,9.5215,Liechtenstein,LI,LIE,Vaduz,primary,36281,1438317747
Banjul,Banjul,13.4531,-16.5775,"Gambia, The",GM,GMB,Banjul,primary,31356,1270723713
Mamoudzou,Mamoudzou,-12.7871,45.2750,Mayotte,YT,MYT,,primary,32057,1175099654
Majuro,Majuro,7.0918,171.3802,Marshall Islands,MH,MHL,Majuro,primary,30000,1584000000
Tarawa,Tarawa,1.3382,173.0176,Kiribati,KI,KIR,,primary,28802,1296152641
George Town,George Town,19.2866,-81.3744,Cayman Islands,KY,CYM,,primary,27704,1136159124
Victoria,Victoria,-4.6236,55.4544,Seychelles,SC,SYC,English River,primary,26450,1690193579
Kingstown,Kingstown,13.1667,-61.2333,Saint Vincent And The Grenadines,VC,VCT,Saint George,primary,25000,1670376659
Saint John’s,Saint John's,17.1211,-61.8447,Antigua And Barbuda,AG,ATG,Saint John,primary,21926,1028912067
Nuku‘alofa,Nuku`alofa,-21.1347,-175.2083,Tonga,TO,TON,Tongatapu,primary,23221,1776737461
Andorra la Vella,Andorra la Vella,42.5000,1.5000,Andorra,AD,AND,Andorra la Vella,primary,22151,1020828846
Nuuk,Nuuk,64.1750,-51.7333,Greenland,GL,GRL,Sermersooq,primary,18326,1304028354
Belmopan,Belmopan,17.2500,-88.7675,Belize,BZ,BLZ,Cayo,primary,17222,1084586375
Roseau,Roseau,15.3000,-61.3833,Dominica,DM,DMA,Saint George,primary,16582,1212060440
Basseterre,Basseterre,17.2983,-62.7342,Saint Kitts And Nevis,KN,KNA,Saint George Basseterre,primary,13220,1659198919
Tórshavn,Torshavn,62.0000,-6.7833,Faroe Islands,FO,FRO,,primary,13326,1234904517
Pago Pago,Pago Pago,-14.2740,-170.7046,American Samoa,AS,ASM,,primary,12576,1016976740
Valletta,Valletta,35.8978,14.5125,Malta,MT,MLT,Valletta,primary,6444,1470574399
Gaza,Gaza,31.5069,34.4560,Gaza Strip,XG,XGZ,,primary,,1916116052
Grand Turk,Grand Turk,21.4664,-71.1360,Turks And Caicos Islands,TC,TCA,,primary,5801,1796965313
Palikir,Palikir,6.9178,158.1850,"Micronesia, Federated States Of",FM,FSM,Pohnpei,primary,6227,1583008885
Funafuti,Funafuti,-8.5167,179.2167,Tuvalu,TV,TUV,Funafuti,primary,6025,1798251391
Lobamba,Lobamba,-26.4465,31.2064,Swaziland,SZ,SWZ,Hhohho,primary,5800,1748963140
Avarua,Avarua,-21.2070,-159.7710,Cook Islands,CK,COK,,primary,5445,1184217570
Saint George’s,Saint George's,12.0444,-61.7417,Grenada,GD,GRD,Saint George,primary,4315,1308891766
San Marino,San Marino,43.9320,12.4484,San Marino,SM,SMR,San Marino Città,primary,4040,1674741947
Al Quds,Al Quds,31.7764,35.2269,West Bank,XW,XWB,,primary,,1934000006
Capitol Hill,Capitol Hill,15.2137,145.7546,Northern Mariana Islands,MP,MNP,,primary,2500,1580556972
Basse-Terre,Basse-Terre,16.0000,-61.7167,Guadeloupe,GP,GLP,,primary,,1312938008
Stanley,Stanley,-51.7000,-57.8500,Falkland Islands (Islas Malvinas),FK,FLK,,primary,2213,1238780509
Vatican City,Vatican City,41.9000,12.4478,Vatican City,VA,VAT,,primary,825,1336000000
Alofi,Alofi,-19.0560,-169.9210,Niue,NU,NIU,,primary,1611,1570882835
Hagåtña,Hagta,13.4745,144.7504,Guam,GU,GUM,,primary,1051,1316937540
Jamestown,Jamestown,-15.9251,-5.7179,"Saint Helena, Ascension, And Tristan Da Cunha",SH,SHN,Saint Helena,primary,714,1654761576
Marigot,Marigot,18.0706,-63.0847,Saint Martin,MF,MAF,,primary,,1663133172
Philipsburg,Philipsburg,18.0256,-63.0492,Sint Maarten,SX,SXM,,primary,,1534859858
Road Town,Road Town,18.4167,-64.6167,"British Virgin Islands",VG,VGB,,primary,,1092732412
Gustavia,Gustavia,17.8958,-62.8508,Saint Barthelemy,BL,BLM,,primary,,1652681565
Saint-Pierre,Saint-Pierre,46.7811,-56.1764,Saint Pierre And Miquelon,PM,SPM,,primary,,1666340272
The Valley,The Valley,18.2167,-63.0500,Anguilla,AI,AIA,,primary,,1660698387
Mata-Utu,Mata-Utu,-13.2825,-176.1736,Wallis And Futuna,WF,WLF,Uvea,primary,,1876784844
Kingston,Kingston,-29.0569,167.9617,Norfolk Island,NF,NFK,,primary,,1574121434
Ngerulmud,Ngerulmud,7.5006,134.6242,Palau,PW,PLW,Melekeok,primary,,1585525081
Tifariti,Tifariti,26.0928,-10.6089,Morocco,MA,MAR,,primary,,1504999990
Tifariti,Tifariti,26.0928,-10.6089,Western Sahara,EH,ESH,,primary,,1732006359
Longyearbyen,Longyearbyen,78.2167,15.6333,Svalbard,XR,XSV,,primary,,1930654114
Adamstown,Adamstown,-25.0667,-130.0833,Pitcairn Islands,PN,PCN,,primary,,1612000000
Flying Fish Cove,Flying Fish Cove,-10.4167,105.7167,Christmas Island,CX,CXR,,primary,,1162889600
Macau,Macau,22.2030,113.5450,Macau,MO,MAC,,,568700,1446227359
Irapuato,Irapuato,20.6667,-101.3500,Mexico,MX,MEX,Guanajuato,minor,380941,1484625454
Nuevo Laredo,Nuevo Laredo,27.4861,-99.5069,Mexico,MX,MEX,Tamaulipas,minor,373725,1484597234
Cuernavaca,Cuernavaca,18.9186,-99.2342,Mexico,MX,MEX,Morelos,admin,366321,1484926471
Nicolás Romero,Nicolas Romero,19.5833,-99.3667,Mexico,MX,MEX,México,minor,366602,1484589606
Tecámac,Tecamac,19.7131,-98.9683,Mexico,MX,MEX,México,minor,364579,1484363321
Ciudad General Escobedo,Ciudad General Escobedo,25.7933,-100.1583,Mexico,MX,MEX,Nuevo León,minor,363436,1484345554
Surgut,Surgut,61.2500,73.4333,Russia,RU,RUS,Khanty-Mansiyskiy Avtonomnyy Okrug-Yugra,,360590,1643007475
Vladimir,Vladimir,56.1286,40.4058,Russia,RU,RUS,Vladimirskaya Oblast’,admin,356168,1643712167
Minatitlán,Minatitlan,17.9833,-94.5500,Mexico,MX,MEX,Veracruz,minor,356020,1484735713
Nizhniy Tagil,Nizhniy Tagil,57.9167,59.9667,Russia,RU,RUS,Sverdlovskaya Oblast’,,355693,1643992310
Arkhangelsk,Arkhangelsk,64.5500,40.5333,Russia,RU,RUS,Arkhangel’skaya Oblast’,admin,351488,1643797198
Chita,Chita,52.0333,113.5000,Russia,RU,RUS,Zabaykal’skiy Kray,admin,347088,1643036673
Kaluga,Kaluga,54.5333,36.2667,Russia,RU,RUS,Kaluzhskaya Oblast’,admin,341892,1643161747
Tepic,Tepic,21.5083,-104.8931,Mexico,MX,MEX,Nayarit,admin,332863,1484433877
Iwaki,Iwaki,37.0333,140.8833,Japan,JP,JPN,Fukushima,,336111,1392158088
Maebashi,Maebashi,36.3833,139.0667,Japan,JP,JPN,Gunma,admin,331576,1392333295
Smolensk,Smolensk,54.7828,32.0453,Russia,RU,RUS,Smolenskaya Oblast’,admin,329853,1643627051
Asahikawa,Asahikawa,43.7706,142.3650,Japan,JP,JPN,Hokkaidō,,331392,1392380358
Gómez Palacio,Gomez Palacio,25.5611,-103.4983,Mexico,MX,MEX,Durango,minor,327985,1484092318
Volzhskiy,Volzhskiy,48.7833,44.7667,Russia,RU,RUS,Volgogradskaya Oblast’,,326055,1643875527
Kōchi,Kochi,33.5589,133.5314,Japan,JP,JPN,Kōchi,admin,325560,1392086071
Naha,Naha,26.2122,127.6789,Japan,JP,JPN,Okinawa,admin,316048,1392583118
San Juan,San Juan,18.4037,-66.0636,Puerto Rico,PR,PRI,Puerto Rico,,323279,1630035577
Kurgan,Kurgan,55.4408,65.3411,Russia,RU,RUS,Kurganskaya Oblast’,admin,322042,1643201853
Uruapan,Uruapan,19.4208,-102.0628,Mexico,MX,MEX,Michoacán de Ocampo,minor,315350,1484051478
Tapachula,Tapachula,14.9000,-92.2667,Mexico,MX,MEX,Chiapas,minor,320451,1484997178
Cherepovets,Cherepovets,59.1333,37.9167,Russia,RU,RUS,Vologodskaya Oblast’,,318856,1643937680
Coatzacoalcos,Coatzacoalcos,18.1500,-94.4333,Mexico,MX,MEX,Veracruz,minor,319187,1484016854
Tampico,Tampico,22.2553,-97.8686,Mexico,MX,MEX,Tamaulipas,minor,314418,1484060031
Vologda,Vologda,59.2167,39.9000,Russia,RU,RUS,Vologodskaya Oblast’,admin,313012,1643013685
Saransk,Saransk,54.1833,45.1833,Russia,RU,RUS,Mordoviya,admin,314789,1643003229
Toshima,Toshima,35.7333,139.7167,Japan,JP,JPN,Tōkyō,,297954,1392793312
Orël,Orel,52.9686,36.0694,Russia,RU,RUS,Orlovskaya Oblast’,admin,311625,1643703818
Yokkaichi,Yokkaichi,34.9667,136.6167,Japan,JP,JPN,Mie,,310263,1392198395
Chalco,Chalco,19.2647,-98.8975,Mexico,MX,MEX,México,minor,310130,1484834149
Kasugai,Kasugai,35.2500,136.9667,Japan,JP,JPN,Aichi,,306449,1392431449
Vladikavkaz,Vladikavkaz,43.0400,44.6775,Russia,RU,RUS,North Ossetia,admin,306978,1643438348
Yakutsk,Yakutsk,62.0272,129.7319,Russia,RU,RUS,Sakha (Yakutiya),admin,307911,1643163546
Podolsk,Podolsk,55.4297,37.5444,Russia,RU,RUS,Moskovskaya Oblast’,,299660,1643693800
Ciudad Victoria,Ciudad Victoria,23.7333,-99.1333,Mexico,MX,MEX,Tamaulipas,admin,305155,1484616519
Ōakashichō,Oakashicho,34.6431,134.9975,Japan,JP,JPN,Hyōgo,,299699,1392000137
Oaxaca,Oaxaca,17.0833,-96.7500,Mexico,MX,MEX,Oaxaca,admin,300050,1484301467
Akita,Akita,39.7197,140.1025,Japan,JP,JPN,Akita,admin,302984,1392129688
Murmansk,Murmansk,68.9667,33.0833,Russia,RU,RUS,Murmanskaya Oblast’,admin,298096,1643755251
Tambov,Tambov,52.7167,41.4333,Russia,RU,RUS,Tambovskaya Oblast’,admin,290365,1643802687
Groznyy,Groznyy,43.3125,45.6986,Russia,RU,RUS,Chechnya,admin,291687,1643049853
Morioka,Morioka,39.6833,141.1500,Japan,JP,JPN,Iwate,admin,290553,1392981957
Coacalco,Coacalco,19.6333,-99.0931,Mexico,MX,MEX,México,minor,278064,1484929782
Fukushima,Fukushima,37.7608,140.4733,Japan,JP,JPN,Fukushima,admin,284282,1392570027
Sterlitamak,Sterlitamak,53.6333,55.9500,Russia,RU,RUS,Bashkortostan,,280233,1643812452
Petrozavodsk,Petrozavodsk,61.7833,34.3500,Russia,RU,RUS,Kareliya,admin,278551,1643319966
Kostroma,Kostroma,57.7667,40.9333,Russia,RU,RUS,Kostromskaya Oblast’,admin,277648,1643869304
Nizhnevartovsk,Nizhnevartovsk,60.9389,76.5950,Russia,RU,RUS,Khanty-Mansiyskiy Avtonomnyy Okrug-Yugra,,277668,1643786132
Pachuca,Pachuca,20.1000,-98.7500,Mexico,MX,MEX,Hidalgo,admin,277375,1484575026
Tehuacán,Tehuacan,18.4617,-97.3928,Mexico,MX,MEX,Puebla,minor,274906,1484817336
Tsu,Tsu,34.7186,136.5056,Japan,JP,JPN,Mie,admin,273267,1392082102
Aomori,Aomori,40.8222,140.7475,Japan,JP,JPN,Aomori,admin,271962,1392083898
Minato,Minato,35.6581,139.7514,Japan,JP,JPN,Tōkyō,,258105,1392294093
Fuchū,Fuchu,35.6689,139.4778,Japan,JP,JPN,Tōkyō,,263093,1392370709
Novorossiysk,Novorossiysk,44.7167,37.7667,Russia,RU,RUS,Krasnodarskiy Kray,,270774,1643087180
Mito,Mito,36.3667,140.4667,Japan,JP,JPN,Ibaraki,admin,269103,1392665227
Yoshkar-Ola,Yoshkar-Ola,56.6328,47.8958,Russia,RU,RUS,Mariy-El,admin,266675,1643701904
Nalchik,Nalchik,43.4833,43.6167,Russia,RU,RUS,Kabardino-Balkariya,admin,265162,1643746064
Ichihara,Ichihara,35.4981,140.1156,Japan,JP,JPN,Chiba,,268038,1392167256
Salamanca,Salamanca,20.5703,-101.1972,Mexico,MX,MEX,Guanajuato,minor,260759,1484741627
Engels,Engels,51.4667,46.1167,Russia,RU,RUS,Saratovskaya Oblast’,,264990,1643653861
Ciudad Benito Juárez,Ciudad Benito Juarez,25.6500,-100.0833,Mexico,MX,MEX,Nuevo León,minor,260683,1484140727
Hiratsuka,Hiratsuka,35.3231,139.3422,Japan,JP,JPN,Kanagawa,,257662,1392311050
Fukui,Fukui,36.0641,136.2196,Japan,JP,JPN,Fukui,admin,260263,1392897510
Sōka,Soka,35.8256,139.8056,Japan,JP,JPN,Saitama,,251390,1392354483
Ciudad Santa Catarina,Ciudad Santa Catarina,25.6833,-100.4500,Mexico,MX,MEX,Nuevo León,minor,259896,1484858068
Los Mochis,Los Mochis,25.7835,-108.9937,Mexico,MX,MEX,Sinaloa,minor,256613,1484443585
Texcoco,Texcoco,19.5200,-98.8800,Mexico,MX,MEX,México,minor,259308,1484653265
Playa del Carmen,Playa del Carmen,20.6275,-87.0811,Mexico,MX,MEX,Quintana Roo,minor,252087,1484559458
Tokushima,Tokushima,34.0667,134.5500,Japan,JP,JPN,Tokushima,admin,254510,1392795984
La Paz,La Paz,24.1422,-110.3108,Mexico,MX,MEX,Baja California Sur,admin,244219,1484005187
Shinozaki,Shinozaki,33.9500,130.9333,Japan,JP,JPN,Fukuoka,,252844,1392516557
Taganrog,Taganrog,47.2333,38.9000,Russia,RU,RUS,Rostovskaya Oblast’,,250287,1643228316
Hakodate,Hakodate,41.7733,140.7261,Japan,JP,JPN,Hokkaidō,,251942,1392708558
Chōfugaoka,Chofugaoka,35.6506,139.5408,Japan,JP,JPN,Tōkyō,,240359,1392692794
Komsomol’sk-na-Amure,Komsomol'sk-na-Amure,50.5500,137.0000,Russia,RU,RUS,Khabarovskiy Kray,minor,249810,1643862307
Chigasaki,Chigasaki,35.3339,139.4047,Japan,JP,JPN,Kanagawa,,242347,1392346493
Yato,Yato,35.4693,139.4616,Japan,JP,JPN,Kanagawa,,239146,1392469032
Yamagata,Yamagata,38.2500,140.3333,Japan,JP,JPN,Yamagata,admin,247234,1392300081
Tsukuba-kenkyūgakuen-toshi,Tsukuba-kenkyugakuen-toshi,36.0333,140.0667,Japan,JP,JPN,Ibaraki,,246647,1392112466
Syktyvkar,Syktyvkar,61.6667,50.8167,Russia,RU,RUS,Komi,admin,245313,1643573386
Khimki,Khimki,55.8892,37.4450,Russia,RU,RUS,Moskva,,244668,1643601857
Fuji,Fuji,35.1614,138.6764,Japan,JP,JPN,Shizuoka,,243739,1392249213
San Juan del Río,San Juan del Rio,20.3833,-99.9833,Mexico,MX,MEX,Querétaro,minor,241699,1484890205
Arakawa,Arakawa,35.7333,139.7833,Japan,JP,JPN,Tōkyō,,217891,1392229262
Hachimanchō,Hachimancho,40.5100,141.5400,Japan,JP,JPN,Aomori,,239046,1392220933
Sato,Sato,33.1631,129.7177,Japan,JP,JPN,Nagasaki,,237444,1392043131
Nizhnekamsk,Nizhnekamsk,55.6333,51.8167,Russia,RU,RUS,Tatarstan,,237250,1643493938
Neya,Neya,34.7661,135.6281,Japan,JP,JPN,Ōsaka,,227997,1392993634
Shakhty,Shakhty,47.7000,40.2333,Russia,RU,RUS,Rostovskaya Oblast’,,235492,1643542365
Monclova,Monclova,26.9103,-101.4222,Mexico,MX,MEX,Coahuila de Zaragoza,minor,231107,1484281759
Saga,Saga,33.2667,130.3000,Japan,JP,JPN,Saga,admin,232359,1392618841
Dzerzhinsk,Dzerzhinsk,56.2333,43.4500,Russia,RU,RUS,Nizhegorodskaya Oblast’,,231797,1643076798
Bratsk,Bratsk,56.1667,101.6167,Russia,RU,RUS,Irkutskaya Oblast’,,231602,1643485535
Ageoshimo,Ageoshimo,35.9775,139.5933,Japan,JP,JPN,Saitama,,226616,1392046664
Orsk,Orsk,51.2000,58.6167,Russia,RU,RUS,Orenburgskaya Oblast’,,230414,1643003114
Noginsk,Noginsk,64.4833,91.2333,Russia,RU,RUS,Krasnoyarskiy Kray,,229731,1643129651
Guadalupe,Guadalupe,22.7528,-102.5078,Mexico,MX,MEX,Zacatecas,minor,215000,1484781342
Taitō,Taito,35.7126,139.7800,Japan,JP,JPN,Tōkyō,,210528,1392662678
Kolpino,Kolpino,59.7300,30.6500,Russia,RU,RUS,Sankt-Peterburg,,225801,1643448070
Puerto Vallarta,Puerto Vallarta,20.6667,-105.2667,Mexico,MX,MEX,Jalisco,minor,221200,1484408906
Buenavista,Buenavista,19.6083,-99.1694,Mexico,MX,MEX,México,,206081,1484774061
Angarsk,Angarsk,52.5667,103.9167,Russia,RU,RUS,Irkutskaya Oblast’,,226374,1643989118
Heroica Nogales,Heroica Nogales,31.3186,-110.9458,Mexico,MX,MEX,Sonora,minor,220292,1484364591
Campeche,Campeche,19.8500,-90.5306,Mexico,MX,MEX,Campeche,admin,220389,1484431512
Korolëv,Korolev,55.9167,37.8167,Russia,RU,RUS,Moskovskaya Oblast’,,221797,1643323167
Minamiōzuma,Minamiozuma,36.2404,137.9700,Japan,JP,JPN,Nagano,,224926,1392373962
Blagoveshchensk,Blagoveshchensk,50.2578,127.5364,Russia,RU,RUS,Amurskaya Oblast’,admin,224419,1643308239
Velikiy Novgorod,Velikiy Novgorod,58.5210,31.2758,Russia,RU,RUS,Novgorodskaya Oblast’,admin,222594,1643774241
Staryy Oskol,Staryy Oskol,51.2981,37.8350,Russia,RU,RUS,Belgorodskaya Oblast’,,223360,1643807951
Soledad de Graciano Sánchez,Soledad de Graciano Sanchez,22.1833,-100.9333,Mexico,MX,MEX,San Luis Potosí,minor,215968,1484610487
Córdoba,Cordoba,18.8942,-96.9347,Mexico,MX,MEX,Veracruz,minor,218153,1484179679
Ciudad Acuña,Ciudad Acuna,29.3242,-100.9317,Mexico,MX,MEX,Coahuila de Zaragoza,minor,216099,1484828397
Ciudad Madero,Ciudad Madero,22.2500,-97.8333,Mexico,MX,MEX,Tamaulipas,minor,209175,1484185237
Kure,Kure,34.2492,132.5658,Japan,JP,JPN,Hiroshima,,212159,1392991987
Metepec,Metepec,19.2511,-99.6047,Mexico,MX,MEX,Morelos,minor,206005,1484782768
Pskov,Pskov,57.8167,28.3333,Russia,RU,RUS,Pskovskaya Oblast’,admin,209840,1643877414
Kamirenjaku,Kamirenjaku,35.6833,139.5594,Japan,JP,JPN,Tōkyō,,194460,1392889022
Mytishchi,Mytishchi,55.9167,37.7333,Russia,RU,RUS,Moskovskaya Oblast’,,205397,1643322494
Yachiyo,Yachiyo,35.7225,140.0997,Japan,JP,JPN,Chiba,,200538,1392929073
Biysk,Biysk,52.5167,85.1667,Russia,RU,RUS,Altayskiy Kray,,203108,1643652314
Poza Rica de Hidalgo,Poza Rica de Hidalgo,20.5333,-97.4500,Mexico,MX,MEX,Veracruz,minor,200119,1484808798
Lyubertsy,Lyubertsy,55.6814,37.8939,Russia,RU,RUS,Moskovskaya Oblast’,,197705,1643024284
Matsue,Matsue,35.4681,133.0486,Japan,JP,JPN,Shimane,admin,201802,1392692238
San Pablo de las Salinas,San Pablo de las Salinas,19.6656,-99.0917,Mexico,MX,MEX,México,,189453,1484379698
Ashino,Ashino,42.9750,144.3747,Japan,JP,JPN,Hokkaidō,,198566,1392810778
Chilpancingo,Chilpancingo,17.5500,-99.5000,Mexico,MX,MEX,Guerrero,admin,187251,1484290575
Higashi-Hiroshima,Higashi-Hiroshima,34.4167,132.7333,Japan,JP,JPN,Hiroshima,,197347,1392464732
Hino,Hino,35.6714,139.3950,Japan,JP,JPN,Tōkyō,,190598,1392686410
Prokopyevsk,Prokopyevsk,53.8833,86.7167,Russia,RU,RUS,Kemerovskaya Oblast’,,196406,1643653477
Suzuka,Suzuka,34.8822,136.5842,Japan,JP,JPN,Mie,,195250,1392913924
San Luis Río Colorado,San Luis Rio Colorado,32.4767,-114.7625,Mexico,MX,MEX,Sonora,minor,192739,1484573106
Naka,Naka,37.4504,138.8600,Japan,JP,JPN,Niigata,,195318,1392479949
Cholula de Rivadabia,Cholula de Rivadabia,19.0633,-98.3064,Mexico,MX,MEX,Puebla,,193554,1484237822
Yuzhno-Sakhalinsk,Yuzhno-Sakhalinsk,46.9500,142.7333,Russia,RU,RUS,Sakhalinskaya Oblast’,admin,194882,1643703767
Kumagaya,Kumagaya,36.1472,139.3886,Japan,JP,JPN,Saitama,,193190,1392500750
Aydın,Aydin,37.8481,27.8453,Turkey,TR,TUR,Aydın,admin,191037,1792696058
Armavir,Armavir,45.0000,41.1167,Russia,RU,RUS,Krasnodarskiy Kray,,190709,1643809754
Balakovo,Balakovo,52.0390,47.7839,Russia,RU,RUS,Saratovskaya Oblast’,,191260,1643480033
Anjōmachi,Anjomachi,34.9667,137.0833,Japan,JP,JPN,Aichi,,188801,1392081830
Rybinsk,Rybinsk,58.0500,38.8333,Russia,RU,RUS,Yaroslavskaya Oblast’,,190429,1643113701
Tachikawa,Tachikawa,35.6939,139.4194,Japan,JP,JPN,Tōkyō,,181115,1392042507
Kōfu,Kofu,35.6667,138.5667,Japan,JP,JPN,Yamanashi,admin,187144,1392307565
Tottori,Tottori,35.5011,134.2350,Japan,JP,JPN,Tottori,,187323,1392416969
Jōetsu,Joetsu,37.1500,138.2333,Japan,JP,JPN,Niigata,,187291,1392040772
Izuo,Izuo,34.4836,135.4236,Japan,JP,JPN,Ōsaka,,184299,1392291253
Manzanillo,Manzanillo,19.0522,-104.3158,Mexico,MX,MEX,Colima,minor,184541,1484223913
Severodvinsk,Severodvinsk,64.5667,39.8500,Russia,RU,RUS,Arkhangel’skaya Oblast’,,183996,1643427671
Narashino,Narashino,35.6808,140.0267,Japan,JP,JPN,Chiba,,174990,1392933042
Abakan,Abakan,53.7167,91.4167,Russia,RU,RUS,Khakasiya,admin,181709,1643946203
Petropavlovsk-Kamchatskiy,Petropavlovsk-Kamchatskiy,53.0167,158.6500,Russia,RU,RUS,Kamchatskiy Kray,admin,181216,1643129247
Çanakkale,Canakkale,40.1500,26.4000,Turkey,TR,TUR,Çanakkale,admin,180823,1792403093
Edirne,Edirne,41.6781,26.5594,Turkey,TR,TUR,Edirne,admin,180327,1792102607
Torbalı,Torbali,38.1619,27.3583,Turkey,TR,TUR,İzmir,minor,178772,1792319298
Chicoloapan,Chicoloapan,19.4167,-98.9000,Mexico,MX,MEX,México,minor,175053,1484980825
Norilsk,Norilsk,69.3333,88.2167,Russia,RU,RUS,Krasnoyarskiy Kray,,177428,1643832764
Ciudad Valles,Ciudad Valles,21.9833,-99.0167,Mexico,MX,MEX,San Luis Potosí,minor,176935,1484904610
Cuautla,Cuautla,18.8167,-98.9500,Mexico,MX,MEX,Morelos,minor,175208,1484359683
Ciudad del Carmen,Ciudad del Carmen,18.6333,-91.8333,Mexico,MX,MEX,Campeche,minor,169466,1484192447
Ereğli,Eregli,41.2583,31.4250,Turkey,TR,TUR,Zonguldak,minor,175605,1792160689
Ōbiraki,Obiraki,40.5700,140.4700,Japan,JP,JPN,Aomori,,174972,1392794397
Comitán,Comitan,16.2511,-92.1342,Mexico,MX,MEX,Chiapas,minor,170000,1484955658
Takaoka,Takaoka,42.6504,141.5500,Japan,JP,JPN,Hokkaidō,,174806,1392760442
Menemen,Menemen,38.6000,27.0667,Turkey,TR,TUR,İzmir,minor,174564,1792699814
Syzran,Syzran,53.1667,48.4667,Russia,RU,RUS,Samarskaya Oblast’,,173260,1643711617
Lagos de Moreno,Lagos de Moreno,21.3564,-101.9292,Mexico,MX,MEX,Jalisco,minor,164981,1484759605
Beppuchō,Beppucho,42.9304,143.1700,Japan,JP,JPN,Hokkaidō,,173890,1392712158
Hitachi,Hitachi,36.6000,140.6500,Japan,JP,JPN,Ibaraki,,172709,1392145167
Orekhovo-Borisovo Yuzhnoye,Orekhovo-Borisovo Yuzhnoye,55.6029,37.7328,Russia,RU,RUS,Moskva,,147713,1643411150
Krasnogorsk,Krasnogorsk,55.8167,37.3333,Russia,RU,RUS,Moskovskaya Oblast’,,171793,1643674336
Izumo,Izumo,35.3681,132.7550,Japan,JP,JPN,Shimane,,171995,1392299364
Niiza,Niiza,35.7933,139.5653,Japan,JP,JPN,Saitama,,164653,1392772700
Guanajuato,Guanajuato,21.0178,-101.2567,Mexico,MX,MEX,Guanajuato,admin,171709,1484185068
Volgodonsk,Volgodonsk,47.5167,42.1500,Russia,RU,RUS,Rostovskaya Oblast’,,171471,1643784914
Kamensk-Ural’skiy,Kamensk-Ural'skiy,56.4000,61.9333,Russia,RU,RUS,Sverdlovskaya Oblast’,,169929,1643640451
Cuauhtémoc,Cuauhtemoc,28.4050,-106.8667,Mexico,MX,MEX,Chihuahua,minor,168482,1484365643
Ussuriysk,Ussuriysk,43.8000,131.9500,Russia,RU,RUS,Primorskiy Kray,,170660,1643001263
Novocherkassk,Novocherkassk,47.4222,40.0939,Russia,RU,RUS,Rostovskaya Oblast’,,168766,1643990727
Nishio,Nishio,34.8667,137.0667,Japan,JP,JPN,Aichi,,168992,1392425838
Zlatoust,Zlatoust,55.1667,59.6667,Russia,RU,RUS,Chelyabinskaya Oblast’,,167978,1643000102
Iwata,Iwata,34.7178,137.8514,Japan,JP,JPN,Shizuoka,,165688,1392088261
Takaoka,Takaoka,36.7541,137.0257,Japan,JP,JPN,Toyama,,165880,1392754231
Siirt,Siirt,37.8417,41.9458,Turkey,TR,TUR,Siirt,admin,166332,1792190820
Körfez,Korfez,40.7706,29.7661,Turkey,TR,TUR,Kocaeli,minor,165503,1792917174
Piedras Negras,Piedras Negras,28.7000,-100.5231,Mexico,MX,MEX,Coahuila de Zaragoza,minor,163595,1484000400
Turgutlu,Turgutlu,38.5000,27.7000,Turkey,TR,TUR,Manisa,minor,163223,1792010631
Ube,Ube,33.9517,131.2467,Japan,JP,JPN,Yamaguchi,,162873,1392198814
Gölcük,Golcuk,40.6667,29.8333,Turkey,TR,TUR,Kocaeli,minor,162584,1792590945
San Martin Texmelucan de Labastida,San Martin Texmelucan de Labastida,19.2833,-98.4333,Mexico,MX,MEX,Puebla,minor,152051,1484481265
Salihli,Salihli,38.4811,28.1392,Turkey,TR,TUR,Manisa,minor,161562,1792382417
Elektrostal,Elektrostal,55.8000,38.4500,Russia,RU,RUS,Moskovskaya Oblast’,,158508,1643790299
Solingen,Solingen,51.1667,7.0833,Germany,DE,DEU,North Rhine-Westphalia,minor,159360,1276728190
Darmstadt,Darmstadt,49.8667,8.6500,Germany,DE,DEU,Hesse,minor,159207,1276607395
Bingöl,Bingol,38.8861,40.5017,Turkey,TR,TUR,Bingöl,admin,160165,1792920183
Talas,Talas,38.6833,35.5667,Turkey,TR,TUR,Kayseri,minor,157695,1792443013
Herne,Herne,51.5426,7.2190,Germany,DE,DEU,North Rhine-Westphalia,minor,156374,1276656117
Higashimurayama,Higashimurayama,35.7547,139.4686,Japan,JP,JPN,Tōkyō,,150458,1392034645
Ōgaki,Ogaki,35.3594,136.6128,Japan,JP,JPN,Gifu,,158386,1392727505
Matsuzaka,Matsuzaka,34.5781,136.5275,Japan,JP,JPN,Mie,,158472,1392893621
San Cristóbal,San Cristobal,16.7367,-92.6383,Mexico,MX,MEX,Chiapas,minor,158027,1484451215
Fethiye,Fethiye,36.6206,29.1142,Turkey,TR,TUR,Muğla,minor,157745,1792001223
Ŭiwang,Uiwang,37.3447,126.9683,South Korea,KR,KOR,Gyeonggi,,154879,1410211816
Navojoa,Navojoa,27.0813,-109.4461,Mexico,MX,MEX,Sonora,minor,157729,1484166303
Erzincan,Erzincan,39.7464,39.4914,Turkey,TR,TUR,Erzincan,admin,157452,1792742754
Zonguldak,Zonguldak,41.4304,31.7800,Turkey,TR,TUR,Zonguldak,admin,156918,1792410633
Jiutepec,Jiutepec,18.8833,-99.1667,Mexico,MX,MEX,Morelos,minor,153704,1484001709
Nazilli,Nazilli,37.9125,28.3206,Turkey,TR,TUR,Aydın,minor,156748,1792517713
Chetumal,Chetumal,18.5036,-88.3053,Mexico,MX,MEX,Quintana Roo,admin,151243,1484338031
Hanam,Hanam,37.5392,127.2147,South Korea,KR,KOR,Gyeonggi,,154838,1410241338
Kariya,Kariya,34.9893,137.0021,Japan,JP,JPN,Aichi,,153178,1392620119
Hitachi-Naka,Hitachi-Naka,36.3964,140.5344,Japan,JP,JPN,Ibaraki,,154311,1392134860
Ordu,Ordu,40.9833,37.8833,Turkey,TR,TUR,Ordu,admin,155117,1792540951
Neuss,Neuss,51.2003,6.6939,Germany,DE,DEU,North Rhine-Westphalia,minor,153796,1276075502
Bartın,Bartin,41.6344,32.3375,Turkey,TR,TUR,Bartın,admin,155016,1792863603
Salavat,Salavat,53.3667,55.9333,Russia,RU,RUS,Bashkortostan,,153181,1643996483
Bandırma,Bandirma,40.3542,27.9725,Turkey,TR,TUR,Balıkesir,minor,154359,1792423107
Silao,Silao,20.9478,-101.4281,Mexico,MX,MEX,Guanajuato,minor,147123,1484276023
Regensburg,Regensburg,49.0167,12.0833,Germany,DE,DEU,Bavaria,minor,152610,1276000325
Almetyevsk,Almetyevsk,54.9000,52.3000,Russia,RU,RUS,Tatarstan,,154262,1643421011
Tama,Tama,35.6333,139.4500,Japan,JP,JPN,Tōkyō,,147252,1392092333
Seogwipo,Seogwipo,33.2497,126.5600,South Korea,KR,KOR,Jeju,,153861,1410542763
Tochigi,Tochigi,36.3824,139.7341,Japan,JP,JPN,Tochigi,,153508,1392660923
Kırşehir,Kirsehir,39.1450,34.1608,Turkey,TR,TUR,Kırşehir,admin,153511,1792825471
Papantla de Olarte,Papantla de Olarte,20.4478,-97.3200,Mexico,MX,MEX,Veracruz,minor,152863,1484844355
Ueda,Ueda,36.4019,138.2491,Japan,JP,JPN,Nagano,,152481,1392438902
Tulancingo,Tulancingo,20.0833,-98.3667,Mexico,MX,MEX,Hidalgo,minor,151582,1484419416
Gwangyang,Gwangyang,34.9403,127.7017,South Korea,KR,KOR,Jeonnam,minor,151834,1410398748
Kukichūō,Kukichuo,36.0622,139.6669,Japan,JP,JPN,Saitama,,150197,1392642279
Miass,Miass,55.0500,60.1000,Russia,RU,RUS,Chelyabinskaya Oblast’,,151856,1643043679
Nakhodka,Nakhodka,42.8167,132.8833,Russia,RU,RUS,Primorskiy Kray,,151420,1643144321
Paderborn,Paderborn,51.7167,8.7667,Germany,DE,DEU,North Rhine-Westphalia,minor,150580,1276339087
Sayama,Sayama,35.8531,139.4122,Japan,JP,JPN,Saitama,,148324,1392752018
Zamora,Zamora,19.9833,-102.2833,Mexico,MX,MEX,Michoacán de Ocampo,,141627,1484229977
Komaki,Komaki,35.2833,136.9167,Japan,JP,JPN,Aichi,,147897,1392770958
Shimotoda,Shimotoda,35.8175,139.6778,Japan,JP,JPN,Saitama,,142352,1392735490
Delicias,Delicias,28.1931,-105.4717,Mexico,MX,MEX,Chihuahua,minor,148045,1484405772
Ağrı,Agri,39.7225,43.0544,Turkey,TR,TUR,Ağrı,admin,149188,1792385654
Amasya,Amasya,40.6500,35.8333,Turkey,TR,TUR,Amasya,admin,149084,1792344167
Iruma,Iruma,35.8358,139.3911,Japan,JP,JPN,Saitama,,145778,1392661533
Kastamonu,Kastamonu,41.3833,33.7833,Turkey,TR,TUR,Kastamonu,admin,148931,1792386602
Kanasín,Kanasin,20.9344,-89.5578,Mexico,MX,MEX,Yucatán,minor,139753,1484390572
Yonago,Yonago,35.4281,133.3311,Japan,JP,JPN,Tottori,,147210,1392391989
Dolores Hidalgo Cuna de la Independencia Nacional,Dolores Hidalgo Cuna de la Independencia Nacional,21.1516,-100.9369,Mexico,MX,MEX,Guanajuato,minor,148173,1484115665
Kopeysk,Kopeysk,55.1000,61.6167,Russia,RU,RUS,Chelyabinskaya Oblast’,,147573,1643343511
Lüleburgaz,Luleburgaz,41.4056,27.3569,Turkey,TR,TUR,Kırklareli,minor,148037,1792000752
Pyatigorsk,Pyatigorsk,44.0333,43.0500,Russia,RU,RUS,Stavropol’skiy Kray,,145836,1643815630
Rubtsovsk,Rubtsovsk,51.5167,81.2000,Russia,RU,RUS,Altayskiy Kray,,145333,1643450182
Odintsovo,Odintsovo,55.6733,37.2733,Russia,RU,RUS,Moskovskaya Oblast’,,146574,1643102939
Misato,Misato,35.8303,139.8725,Japan,JP,JPN,Saitama,,141913,1392464033
Kolomna,Kolomna,55.0833,38.7833,Russia,RU,RUS,Moskovskaya Oblast’,,144125,1643196698
García,Garcia,25.8167,-100.5833,Mexico,MX,MEX,Nuevo León,minor,145867,1484753599
Berezniki,Berezniki,59.4167,56.7833,Russia,RU,RUS,Permskiy Kray,,145115,1643757810
Ereğli,Eregli,37.5058,34.0517,Turkey,TR,TUR,Konya,minor,145389,1792110470
Yalova,Yalova,40.6556,29.2750,Turkey,TR,TUR,Yalova,admin,144407,1792838138
Kusatsu,Kusatsu,35.0167,135.9667,Japan,JP,JPN,Shiga,,143230,1392082200
Kakamigahara,Kakamigahara,35.3989,136.8486,Japan,JP,JPN,Gifu,,143641,1392578597
Khasavyurt,Khasavyurt,43.2500,46.5833,Russia,RU,RUS,Dagestan,minor,141259,1643734694
Tuxtepec,Tuxtepec,18.1000,-96.1167,Mexico,MX,MEX,Oaxaca,,144555,1484448356
Túxpam de Rodríguez Cano,Tuxpam de Rodriguez Cano,20.9500,-97.4000,Mexico,MX,MEX,Veracruz,minor,143362,1484316468
Nevşehir,Nevsehir,38.6250,34.7122,Turkey,TR,TUR,Nevşehir,admin,143194,1792583760
Cizre,Cizre,37.3250,42.1958,Turkey,TR,TUR,Şırnak,minor,143124,1792431845
Telford,Telford,52.6766,-2.4469,United Kingdom,GB,GBR,Telford and Wrekin,,142723,1826968934
Nizip,Nizip,37.0104,37.7985,Turkey,TR,TUR,Gaziantep,minor,142389,1792748330
Maykop,Maykop,44.6000,40.0833,Russia,RU,RUS,Adygeya,admin,141970,1643584159
Fukayachō,Fukayacho,36.2000,139.2833,Japan,JP,JPN,Saitama,,141336,1392571441
Rize,Rize,41.0167,40.5167,Turkey,TR,TUR,Rize,admin,141143,1792024731
Colima,Colima,19.2433,-103.7247,Mexico,MX,MEX,Colima,admin,137383,1484585697
Tepatitlán de Morelos,Tepatitlan de Morelos,20.8170,-102.7330,Mexico,MX,MEX,Jalisco,minor,141322,1484777621
Valle de Santiago,Valle de Santiago,20.3928,-101.1969,Mexico,MX,MEX,Guanajuato,minor,141058,1484060538
Kovrov,Kovrov,56.3606,41.3197,Russia,RU,RUS,Vladimirskaya Oblast’,,138552,1643110693
Kokubunji,Kokubunji,35.7108,139.4622,Japan,JP,JPN,Tōkyō,,129619,1392193917
Sale,Sale,53.4240,-2.3220,United Kingdom,GB,GBR,Trafford,,134022,1826016049
Kuwana,Kuwana,35.0622,136.6839,Japan,JP,JPN,Mie,,138798,1392018722
San Miguel de Allende,San Miguel de Allende,20.9142,-100.7436,Mexico,MX,MEX,Guanajuato,minor,139297,1484007926
Koga,Koga,36.1833,139.7000,Japan,JP,JPN,Ibaraki,,138237,1392720735
Ishizaki,Ishizaki,38.4281,141.3061,Japan,JP,JPN,Miyagi,,138856,1392384377
Zacatecas,Zacatecas,22.7736,-102.5736,Mexico,MX,MEX,Zacatecas,admin,138152,1484118312
Boca del Rio,Boca del Rio,19.1056,-96.1078,Mexico,MX,MEX,Veracruz,minor,138058,1484658980
Zama,Zama,35.4886,139.4075,Japan,JP,JPN,Kanagawa,,130753,1392313741
Ingolstadt,Ingolstadt,48.7636,11.4261,Germany,DE,DEU,Bavaria,minor,136981,1276803150
Ch’ungmu,Ch'ungmu,34.8458,128.4236,South Korea,KR,KOR,Gyeongnam,,137208,1410257662
Iğdır,Igdir,39.9167,44.0333,Turkey,TR,TUR,Iğdır,admin,137613,1792813007
Santa María Texmelucan,Santa Maria Texmelucan,19.2833,-98.4333,Mexico,MX,MEX,Puebla,,135500,1484127851
Kisarazu,Kisarazu,35.3761,139.9169,Japan,JP,JPN,Chiba,,136118,1392821453
Yaizu,Yaizu,34.8667,138.3167,Japan,JP,JPN,Shizuoka,,136028,1392569740
Inazawa,Inazawa,35.2500,136.7833,Japan,JP,JPN,Aichi,,134938,1392019493
Chech’ŏn,Chech'on,37.1361,128.2119,South Korea,KR,KOR,Chungbuk,,136350,1410470747
Giresun,Giresun,40.9000,38.4167,Turkey,TR,TUR,Giresun,admin,135920,1792486859
Zinacantepec,Zinacantepec,19.2833,-99.7333,Mexico,MX,MEX,México,minor,136167,1484976252
Brighton,Brighton,50.8429,-0.1313,United Kingdom,GB,GBR,Brighton and Hove,,134293,1826609057
Heroica Guaymas,Heroica Guaymas,27.9183,-110.8989,Mexico,MX,MEX,Sonora,minor,134153,1484689704
Apatzingan de la Constitucion,Apatzingan de la Constitucion,19.0886,-102.3508,Mexico,MX,MEX,Michoacán de Ocampo,,128250,1484693242
Enfield,Enfield,51.6522,-0.0808,United Kingdom,GB,GBR,Enfield,,132640,1826362409
Ōme,Ome,35.7839,139.2431,Japan,JP,JPN,Tōkyō,,132436,1392575345
Abiko,Abiko,35.8642,140.0282,Japan,JP,JPN,Chiba,,130290,1392000342
Ödemiş,Odemis,38.2311,27.9719,Turkey,TR,TUR,İzmir,minor,132511,1792140925
Karabük,Karabuk,41.2000,32.6333,Turkey,TR,TUR,Karabük,admin,131989,1792834766
High Wycombe,High Wycombe,51.6287,-0.7482,United Kingdom,GB,GBR,Buckinghamshire,,125257,1826609342
Narita,Narita,35.7833,140.3167,Japan,JP,JPN,Chiba,,130689,1392216588
Torrejón de Ardoz,Torrejon de Ardoz,40.4614,-3.4978,Spain,ES,ESP,Madrid,,127132,1724711203
Onomichi,Onomichi,34.4089,133.2050,Japan,JP,JPN,Hiroshima,,130143,1392886423
Kislovodsk,Kislovodsk,43.9100,42.7200,Russia,RU,RUS,Stavropol’skiy Kray,,128779,1643705192
Kozan,Kozan,37.4507,35.8123,Turkey,TR,TUR,Adana,minor,130495,1792567030
Çayırova,Cayirova,40.8265,29.3745,Turkey,TR,TUR,Kocaeli,minor,129655,1792546631
Fürth,Furth,49.4783,10.9903,Germany,DE,DEU,Bavaria,minor,127748,1276580165
Serpukhov,Serpukhov,54.9167,37.4000,Russia,RU,RUS,Moskovskaya Oblast’,,125817,1643395657
Bolton,Bolton,53.5780,-2.4290,United Kingdom,GB,GBR,Bolton,,128139,1826628353
Würzburg,Wurzburg,49.7944,9.9294,Germany,DE,DEU,Bavaria,minor,127880,1276233514
Novocheboksarsk,Novocheboksarsk,56.1167,47.5000,Russia,RU,RUS,Chuvashiya,,126626,1643839131
Romford,Romford,51.5768,0.1801,United Kingdom,GB,GBR,Havering,,122854,1826695421
Newport,Newport,51.5833,-3.0000,United Kingdom,GB,GBR,Newport,,128060,1826018889
Seto,Seto,35.2167,137.0833,Japan,JP,JPN,Aichi,,127327,1392028874
Bataysk,Bataysk,47.1333,39.7500,Russia,RU,RUS,Rostovskaya Oblast’,,126769,1643522051
Domodedovo,Domodedovo,55.4333,37.7500,Russia,RU,RUS,Moskovskaya Oblast’,,127850,1643918019
Kadoma,Kadoma,34.7333,135.5833,Japan,JP,JPN,Ōsaka,,118319,1392702415
Kaspiysk,Kaspiysk,42.8833,47.6333,Russia,RU,RUS,Dagestan,,123988,1643020514
Neftekamsk,Neftekamsk,56.0833,54.2500,Russia,RU,RUS,Bashkortostan,,126805,1643718660
Ōmiyachō,Omiyacho,35.2222,138.6214,Japan,JP,JPN,Shizuoka,,127252,1392347988
Ulm,Ulm,48.3984,9.9916,Germany,DE,DEU,Baden-Württemberg,minor,126329,1276002212
Nefteyugansk,Nefteyugansk,61.1000,72.6000,Russia,RU,RUS,Khanty-Mansiyskiy Avtonomnyy Okrug-Yugra,,127255,1643009656
Heilbronn,Heilbronn,49.1404,9.2180,Germany,DE,DEU,Baden-Württemberg,minor,125960,1276377359
Miramar,Miramar,22.3375,-97.8694,Mexico,MX,MEX,Tamaulipas,,118614,1484353090
Ixtlahuaca,Ixtlahuaca,19.5689,-99.7669,Mexico,MX,MEX,México,minor,126505,1484837068
Ünye,Unye,41.1271,37.2882,Turkey,TR,TUR,Ordu,minor,126702,1792053028
Exeter,Exeter,50.7167,-3.5333,United Kingdom,GB,GBR,Devon,,124180,1826840903
Pforzheim,Pforzheim,48.8950,8.7050,Germany,DE,DEU,Baden-Württemberg,minor,125542,1276732622
Iizuka,Iizuka,33.6458,130.6914,Japan,JP,JPN,Fukuoka,,126136,1392365784
Solihull,Solihull,52.4130,-1.7780,United Kingdom,GB,GBR,Solihull,,123187,1826720500
Shchelkovo,Shchelkovo,55.9167,38.0000,Russia,RU,RUS,Moskovskaya Oblast’,,125634,1643006516
Novomoskovsk,Novomoskovsk,54.0333,38.2667,Russia,RU,RUS,Tul’skaya Oblast’,,125647,1643119962
Gateshead,Gateshead,54.9500,-1.6000,United Kingdom,GB,GBR,Gateshead,,120046,1826635849
Honchō,Honcho,35.7581,139.5297,Japan,JP,JPN,Tōkyō,,116477,1392994259
Orizaba,Orizaba,18.8500,-97.1000,Mexico,MX,MEX,Veracruz,minor,117273,1484766767
Ciudad de Atlixco,Ciudad de Atlixco,18.9000,-98.4500,Mexico,MX,MEX,Puebla,minor,125000,1484268457
Daitōchō,Daitocho,34.7119,135.6233,Japan,JP,JPN,Ōsaka,,118799,1392727709
Polatlı,Polatli,39.5842,32.1472,Turkey,TR,TUR,Ankara,minor,125075,1792124981
Cádiz,Cadiz,36.5350,-6.2975,Spain,ES,ESP,Andalusia,minor,115439,1724502822
Wolfsburg,Wolfsburg,52.4231,10.7872,Germany,DE,DEU,Lower Saxony,minor,124151,1276033981
Pervouralsk,Pervouralsk,56.9167,59.9500,Russia,RU,RUS,Sverdlovskaya Oblast’,,124447,1643845220
Algeciras,Algeciras,36.1275,-5.4539,Spain,ES,ESP,Andalusia,,123078,1724355681
Noksan,Noksan,36.2039,127.0847,South Korea,KR,KOR,Chungnam,,124246,1410179693
Kadirli,Kadirli,37.3739,36.0961,Turkey,TR,TUR,Osmaniye,minor,124053,1792113133
Cherkessk,Cherkessk,44.2222,42.0575,Russia,RU,RUS,Karachayevo-Cherkesiya,admin,122395,1643955713
San Pedro Garza García,San Pedro Garza Garcia,25.6667,-100.3000,Mexico,MX,MEX,Nuevo León,minor,122009,1484228590
Derbent,Derbent,42.0692,48.2958,Russia,RU,RUS,Dagestan,minor,123720,1643003556
Preston,Preston,53.7590,-2.6990,United Kingdom,GB,GBR,Lancashire,,122719,1826018478
Villa de Álvarez,Villa de Alvarez,19.2500,-103.7333,Mexico,MX,MEX,Colima,minor,117600,1484653806
Ise,Ise,34.4833,136.7167,Japan,JP,JPN,Mie,,122432,1392000398
Patnos,Patnos,39.2358,42.8686,Turkey,TR,TUR,Ağrı,minor,122833,1792386113
Blackburn,Blackburn,53.7480,-2.4820,United Kingdom,GB,GBR,Blackburn with Darwen,,117963,1826802533
Ciudad Hidalgo,Ciudad Hidalgo,19.6923,-100.5574,Mexico,MX,MEX,Michoacán de Ocampo,minor,122619,1484580926
Orekhovo-Zuyevo,Orekhovo-Zuyevo,55.8000,38.9667,Russia,RU,RUS,Moskovskaya Oblast’,,118822,1643381342
Kashiwara,Kashiwara,34.5094,135.7925,Japan,JP,JPN,Nara,,121604,1392686221
Samandağ,Samandag,36.0850,35.9806,Turkey,TR,TUR,Hatay,minor,121109,1792813864
Tsuruoka,Tsuruoka,38.7217,139.8217,Japan,JP,JPN,Yamagata,,121371,1392935450
Walthamstow,Walthamstow,51.5900,-0.0000,United Kingdom,GB,GBR,Waltham Forest,,109424,1826009890
Doğubayazıt,Dogubayazit,39.5500,44.0833,Turkey,TR,TUR,Ağrı,minor,121263,1792572929
Chilapa de Álvarez,Chilapa de Alvarez,17.5944,-99.1778,Mexico,MX,MEX,Guerrero,minor,120790,1484562441
Göttingen,Gottingen,51.5339,9.9356,Germany,DE,DEU,Lower Saxony,minor,119801,1276211234
Ebetsu,Ebetsu,43.1039,141.5361,Japan,JP,JPN,Hokkaidō,,119819,1392987572
Fujimino,Fujimino,35.8794,139.5197,Japan,JP,JPN,Saitama,,112745,1392078110
Nazran,Nazran,43.2167,44.7667,Russia,RU,RUS,Ingushetiya,,117936,1643123780
Kasuga,Kasuga,33.5328,130.4703,Japan,JP,JPN,Fukuoka,,111144,1392971052
Cheltenham,Cheltenham,51.9000,-2.0667,United Kingdom,GB,GBR,Gloucestershire,,116447,1826524974
Nevinnomyssk,Nevinnomyssk,44.6333,41.9333,Russia,RU,RUS,Stavropol’skiy Kray,,117446,1643869152
Reutov,Reutov,55.7667,37.8667,Russia,RU,RUS,Moskovskaya Oblast’,,106990,1643138327
Akishima,Akishima,35.7056,139.3536,Japan,JP,JPN,Tōkyō,,112110,1392041019
Bottrop,Bottrop,51.5232,6.9253,Germany,DE,DEU,North Rhine-Westphalia,minor,117383,1276473363
Kōnosu,Konosu,36.0687,139.5168,Japan,JP,JPN,Saitama,,116777,1392326410
Karatepe,Karatepe,40.6883,30.0144,Turkey,TR,TUR,Kocaeli,,118066,1792291745
Cuautitlán,Cuautitlan,19.6833,-99.1833,Mexico,MX,MEX,México,minor,110385,1484256075
Ikoma,Ikoma,34.6919,135.7006,Japan,JP,JPN,Nara,,116174,1392390581
Martínez de la Torre,Martinez de la Torre,20.0667,-97.0500,Mexico,MX,MEX,Veracruz,minor,110415,1484150240
Tecomán,Tecoman,18.9089,-103.8747,Mexico,MX,MEX,Colima,minor,112726,1484348795
Nobeoka,Nobeoka,32.5822,131.6650,Japan,JP,JPN,Miyazaki,,117711,1392666259
Obninsk,Obninsk,55.1000,36.6167,Russia,RU,RUS,Kaluzhskaya Oblast’,,115029,1643426054
Kapaklı,Kapakli,41.3333,27.9667,Turkey,TR,TUR,Tekirdağ,minor,116882,1792061507
Basingstoke,Basingstoke,51.2667,-1.0876,United Kingdom,GB,GBR,Hampshire,,113776,1826924980
Maidstone,Maidstone,51.2720,0.5290,United Kingdom,GB,GBR,Kent,,113137,1826000009
Reutlingen,Reutlingen,48.4833,9.2167,Germany,DE,DEU,Baden-Württemberg,minor,115966,1276256795
Temixco,Temixco,18.8500,-99.2333,Mexico,MX,MEX,Morelos,minor,116143,1484273506
Kyzyl,Kyzyl,51.7167,94.4500,Russia,RU,RUS,Tyva,admin,116015,1643780385
Beppu,Beppu,33.2847,131.4911,Japan,JP,JPN,Ōita,,115992,1392115605
Dimitrovgrad,Dimitrovgrad,54.2333,49.5833,Russia,RU,RUS,Ul’yanovskaya Oblast’,,116055,1643039639
San Antonio Enchisi,San Antonio Enchisi,19.7072,-99.7867,Mexico,MX,MEX,México,,110560,1484770456
Ramenskoye,Ramenskoye,55.5669,38.2303,Russia,RU,RUS,Moskovskaya Oblast’,,116077,1643438526
Kilis,Kilis,36.7167,37.1167,Turkey,TR,TUR,Kilis,admin,116034,1792866362
Shibuya,Shibuya,35.6536,139.7092,Japan,JP,JPN,Tōkyō,,102056,1392000470
Parral,Parral,26.9333,-105.6667,Mexico,MX,MEX,Chihuahua,minor,109510,1484607603
Huejutla de Reyes,Huejutla de Reyes,21.1333,-98.4167,Mexico,MX,MEX,Hidalgo,,115786,1484746079
Chelmsford,Chelmsford,51.7361,0.4798,United Kingdom,GB,GBR,Essex,,111511,1826876670
Doncaster,Doncaster,53.5150,-1.1330,United Kingdom,GB,GBR,Doncaster,,109805,1826979494
Nasushiobara,Nasushiobara,36.9617,140.0461,Japan,JP,JPN,Tochigi,,115602,1392841957
Kōenchō,Koencho,43.8081,143.8942,Japan,JP,JPN,Hokkaidō,,115441,1392099278
Niihama,Niihama,33.9603,133.2834,Japan,JP,JPN,Ehime,,114971,1392682431
Sano,Sano,36.3144,139.5783,Japan,JP,JPN,Tochigi,,114842,1392791927
Koblenz,Koblenz,50.3597,7.5978,Germany,DE,DEU,Rhineland-Palatinate,minor,114024,1276605495
Oktyabr’skiy,Oktyabr'skiy,54.4833,53.4833,Russia,RU,RUS,Bashkortostan,,113929,1643301615
Hatsukaichi,Hatsukaichi,34.3486,132.3317,Japan,JP,JPN,Hiroshima,,114699,1392723053
Las Delicias,Las Delicias,28.2000,-105.5000,Mexico,MX,MEX,Chihuahua,,114783,1484513329
Bremerhaven,Bremerhaven,53.5500,8.5833,Germany,DE,DEU,Bremen,,113634,1276991229
Kamagaya,Kamagaya,35.7769,140.0008,Japan,JP,JPN,Chiba,,109370,1392541992
Kuşadası,Kusadasi,37.8586,27.2594,Turkey,TR,TUR,İzmir,minor,113580,1792759260
Colchester,Colchester,51.8917,0.9030,United Kingdom,GB,GBR,Essex,,111921,1826545433
Recklinghausen,Recklinghausen,51.6167,7.2000,Germany,DE,DEU,North Rhine-Westphalia,minor,112267,1276179876
San Francisco del Rincón,San Francisco del Rincon,21.0228,-101.8600,Mexico,MX,MEX,Guanajuato,minor,113570,1484674455
Hōfu,Hofu,34.0500,131.5667,Japan,JP,JPN,Yamaguchi,,113170,1392985430
Hikone,Hikone,35.2744,136.2597,Japan,JP,JPN,Shiga,,113191,1392717059
Wythenshawe,Wythenshawe,53.3920,-2.2640,United Kingdom,GB,GBR,Manchester,,110000,1826781713
Erlangen,Erlangen,49.5964,11.0044,Germany,DE,DEU,Bavaria,minor,111962,1276339482
Sa-ch’on,Sa-ch'on,35.2347,128.3575,South Korea,KR,KOR,Gyeongnam,,113335,1410369367
Akçakale,Akcakale,36.7108,38.9478,Turkey,TR,TUR,Şanlıurfa,minor,113194,1792050087
Bergisch Gladbach,Bergisch Gladbach,50.9917,7.1367,Germany,DE,DEU,North Rhine-Westphalia,minor,111966,1276074373
Novyy Urengoy,Novyy Urengoy,66.0847,76.6789,Russia,RU,RUS,Yamalo-Nenetskiy Avtonomnyy Okrug,,113254,1643427847
Burdur,Burdur,37.7167,30.2833,Turkey,TR,TUR,Burdur,admin,113077,1792413556
Jaén,Jaen,37.7667,-3.7711,Spain,ES,ESP,Andalusia,minor,112757,1724699771
Rotherham,Rotherham,53.4300,-1.3570,United Kingdom,GB,GBR,Rotherham,,109691,1826763937
Otaru,Otaru,43.1833,141.0000,Japan,JP,JPN,Hokkaidō,,112452,1392240421
Higashiōmi,Higashiomi,35.1128,136.2078,Japan,JP,JPN,Shiga,,112459,1392117204
Ōshū,Oshu,39.1444,141.1389,Japan,JP,JPN,Iwate,,112402,1392826391
Remscheid,Remscheid,51.1802,7.1872,Germany,DE,DEU,North Rhine-Westphalia,minor,110994,1276043920
Habikino,Habikino,34.5578,135.6061,Japan,JP,JPN,Ōsaka,,108373,1392918777
Kamyshin,Kamyshin,50.0833,45.4000,Russia,RU,RUS,Volgogradskaya Oblast’,,111100,1643117920
Dolgoprudnyy,Dolgoprudnyy,55.9333,37.5000,Russia,RU,RUS,Moskovskaya Oblast’,,108861,1643283176
Jena,Jena,50.9272,11.5864,Germany,DE,DEU,Thuringia,minor,111407,1276659978
Kars,Kars,40.6069,43.0931,Turkey,TR,TUR,Kars,admin,112260,1792000464
Ciudad Mante,Ciudad Mante,22.7333,-98.9500,Mexico,MX,MEX,Tamaulipas,minor,112061,1484536173
Zhukovskiy,Zhukovskiy,55.6011,38.1161,Russia,RU,RUS,Moskovskaya Oblast’,,107994,1643012071
Escuintla,Escuintla,15.3194,-92.6583,Mexico,MX,MEX,Chiapas,minor,107638,1484508510
Hounslow,Hounslow,51.4668,-0.3750,United Kingdom,GB,GBR,Hounslow,,103337,1826943293
Trier,Trier,49.7567,6.6414,Germany,DE,DEU,Rhineland-Palatinate,minor,110636,1276211430
Rochdale,Rochdale,53.6136,-2.1610,United Kingdom,GB,GBR,Rochdale,,107926,1826578106
Murom,Murom,55.5725,42.0514,Russia,RU,RUS,Vladimirskaya Oblast’,,109072,1643769134
Bedford,Bedford,52.1350,-0.4700,United Kingdom,GB,GBR,Bedford,,106940,1826771105
Tondabayashichō,Tondabayashicho,34.4992,135.5972,Japan,JP,JPN,Ōsaka,,108735,1392173163
Stockport,Stockport,53.4083,-2.1494,United Kingdom,GB,GBR,Stockport,,105878,1826228303
Fresnillo,Fresnillo,23.1750,-102.8675,Mexico,MX,MEX,Zacatecas,minor,110892,1484014035
Yessentuki,Yessentuki,44.0431,42.8644,Russia,RU,RUS,Stavropol’skiy Kray,,108679,1643737725
Iguala de la Independencia,Iguala de la Independencia,18.3500,-99.5333,Mexico,MX,MEX,Guerrero,minor,110390,1484280781
Shirayamamachi,Shirayamamachi,36.5144,136.5656,Japan,JP,JPN,Ishikawa,,110135,1392840575
Darlington,Darlington,54.5270,-1.5526,United Kingdom,GB,GBR,Darlington,,105564,1826453946
Yŏju,Yoju,37.2939,127.6383,South Korea,KR,KOR,Gyeonggi,,109937,1410007012
Sandachō,Sandacho,34.8894,135.2253,Japan,JP,JPN,Hyōgo,,109243,1392493731
Yŏngju,Yongju,36.8217,128.6308,South Korea,KR,KOR,Gyeongbuk,,109266,1410990908
Mineshita,Mineshita,35.1186,138.9186,Japan,JP,JPN,Shizuoka,,107416,1392924607
Soma,Soma,39.1833,27.6056,Turkey,TR,TUR,Manisa,minor,108981,1792461536
Novoshakhtinsk,Novoshakhtinsk,47.7667,39.9167,Russia,RU,RUS,Rostovskaya Oblast’,,108345,1643535469
Crawley,Crawley,51.1092,-0.1872,United Kingdom,GB,GBR,West Sussex,,106597,1826470693
Ikeda,Ikeda,34.8167,135.4333,Japan,JP,JPN,Ōsaka,,104148,1392188564
Salford,Salford,53.4830,-2.2931,United Kingdom,GB,GBR,Salford,,103886,1826868550
Wembley,Wembley,51.5528,-0.2979,United Kingdom,GB,GBR,Brent,,102856,1826635683
Huauchinango,Huauchinango,20.1767,-98.0528,Mexico,MX,MEX,Puebla,minor,97753,1484856743
Dagenham,Dagenham,51.5397,0.1422,United Kingdom,GB,GBR,Barking and Dagenham,,106247,1826363543
Seversk,Seversk,56.6000,84.8500,Russia,RU,RUS,Tomskaya Oblast’,,107922,1643818456
Reus,Reus,41.1549,1.1087,Spain,ES,ESP,Catalonia,,106168,1724192207
Tajimi,Tajimi,35.3328,137.1322,Japan,JP,JPN,Gifu,,106746,1392899702
Thunder Bay,Thunder Bay,48.3822,-89.2461,Canada,CA,CAN,Ontario,,107909,1124398712
Gillingham,Gillingham,51.3850,0.5500,United Kingdom,GB,GBR,Medway,,104157,1826642243
La Piedad,La Piedad,20.3333,-102.0167,Mexico,MX,MEX,Michoacán de Ocampo,minor,99837,1484779296
Mansfield,Mansfield,53.1500,-1.2000,United Kingdom,GB,GBR,Nottinghamshire,,106556,1826359576
Dieppe,Dieppe,46.0989,-64.7242,Canada,CA,CAN,New Brunswick,,107068,1124195431
Arzamas,Arzamas,55.3833,43.8000,Russia,RU,RUS,Nizhegorodskaya Oblast’,,104547,1643088735
San Felipe,San Felipe,21.4833,-101.2167,Mexico,MX,MEX,Guanajuato,minor,106952,1484279509
Artëm,Artem,43.3500,132.1833,Russia,RU,RUS,Primorskiy Kray,,106692,1643978240
Noyabrsk,Noyabrsk,63.2017,75.4517,Russia,RU,RUS,Yamalo-Nenetskiy Avtonomnyy Okrug,,106879,1643340196
Kemalpaşa,Kemalpasa,38.4261,27.4172,Turkey,TR,TUR,İzmir,minor,106298,1792611875
Achinsk,Achinsk,56.2817,90.5039,Russia,RU,RUS,Krasnoyarskiy Kray,,105264,1643890929
Girona,Girona,41.9833,2.8167,Spain,ES,ESP,Catalonia,minor,103369,1724386661
Nusaybin,Nusaybin,37.0833,41.2167,Turkey,TR,TUR,Mardin,minor,105856,1792327949
Yelets,Yelets,52.6167,38.4667,Russia,RU,RUS,Lipetskaya Oblast’,,104349,1643014014
Pushkino,Pushkino,56.0167,37.8500,Russia,RU,RUS,Moskovskaya Oblast’,,105479,1643799484
Lerma,Lerma,19.2847,-99.5119,Mexico,MX,MEX,México,minor,105578,1484402392
Ciudad Río Bravo,Ciudad Rio Bravo,25.9861,-98.0889,Mexico,MX,MEX,Tamaulipas,minor,101481,1484549731
Toride,Toride,35.9114,140.0503,Japan,JP,JPN,Ibaraki,,103908,1392922950
Moers,Moers,51.4592,6.6197,Germany,DE,DEU,North Rhine-Westphalia,,103725,1276257182
Yozgat,Yozgat,39.8208,34.8083,Turkey,TR,TUR,Yozgat,admin,105167,1792862455
Salzgitter,Salzgitter,52.1503,10.3593,Germany,DE,DEU,Lower Saxony,minor,104948,1276613066
Berdsk,Berdsk,54.7500,83.1000,Russia,RU,RUS,Novosibirskaya Oblast’,,103578,1643751718
Waterloo,Waterloo,43.4667,-80.5167,Canada,CA,CAN,Ontario,,104986,1124321390
San Vicente de Baracaldo,San Vicente de Baracaldo,43.2972,-2.9917,Spain,ES,ESP,Basque Country,,101486,1724451934
Sergiyev Posad,Sergiyev Posad,56.3000,38.1333,Russia,RU,RUS,Moskovskaya Oblast’,,104579,1643900929
Zihuatanejo,Zihuatanejo,17.6444,-101.5511,Mexico,MX,MEX,Guerrero,minor,104609,1484489217
Inzai,Inzai,35.8322,140.1458,Japan,JP,JPN,Chiba,,103677,1392272573
Eastbourne,Eastbourne,50.7700,0.2800,United Kingdom,GB,GBR,East Sussex,,103745,1826356320
Worcester,Worcester,52.1920,-2.2200,United Kingdom,GB,GBR,Worcestershire,,101328,1826393854
Fyfield,Fyfield,51.7390,0.2722,United Kingdom,GB,GBR,Essex,,104234,1826399602
Ginowan,Ginowan,26.2817,127.7783,Japan,JP,JPN,Okinawa,,99256,1392613742
Tula de Allende,Tula de Allende,20.0500,-99.3500,Mexico,MX,MEX,Hidalgo,,103919,1484845374
Saijō,Saijo,33.9196,133.1812,Japan,JP,JPN,Ehime,,103760,1392903707
Isehara,Isehara,35.4028,139.3150,Japan,JP,JPN,Kanagawa,,102088,1392928065
Wigan,Wigan,53.5448,-2.6318,United Kingdom,GB,GBR,Wigan,,103608,1826902223
Siegen,Siegen,50.8756,8.0167,Germany,DE,DEU,North Rhine-Westphalia,minor,102836,1276268768
Elista,Elista,46.3167,44.2667,Russia,RU,RUS,Kalmykiya,admin,103132,1643581064
Sakado,Sakado,35.9572,139.4031,Japan,JP,JPN,Saitama,,100829,1392771396
Novokuybyshevsk,Novokuybyshevsk,53.1000,49.9167,Russia,RU,RUS,Samarskaya Oblast’,,102075,1643467643
Bergama,Bergama,39.1228,27.1783,Turkey,TR,TUR,İzmir,minor,103185,1792434888
Miryang,Miryang,35.4933,128.7489,South Korea,KR,KOR,Gyeongnam,,103069,1410001039
Hildesheim,Hildesheim,52.1500,9.9500,Germany,DE,DEU,Lower Saxony,minor,101990,1276244190
Sangju,Sangju,36.4153,128.1606,South Korea,KR,KOR,Gyeongbuk,,102892,1410127055
Kırklareli,Kirklareli,41.7347,27.2253,Turkey,TR,TUR,Kırklareli,admin,102909,1792182918
Hove,Hove,50.8352,-0.1758,United Kingdom,GB,GBR,Brighton and Hove,,91900,1826419818
Noginsk,Noginsk,55.8500,38.4333,Russia,RU,RUS,Moskovskaya Oblast’,,102592,1643001706
Saint Helens,Saint Helens,53.4541,-2.7461,United Kingdom,GB,GBR,St. Helens,,102629,1826775771
San Felipe del Progreso,San Felipe del Progreso,19.7125,-99.9511,Mexico,MX,MEX,México,minor,100201,1484781559
Delta,Delta,49.0847,-123.0586,Canada,CA,CAN,British Columbia,,102238,1124001200
Coatepec,Coatepec,19.4553,-96.9586,Mexico,MX,MEX,Veracruz,minor,92127,1484934939
Boryeong,Boryeong,36.3333,126.6167,South Korea,KR,KOR,Chungnam,minor,101852,1410204364
Hemel Hempstead,Hemel Hempstead,51.7526,-0.4692,United Kingdom,GB,GBR,Hertfordshire,,97500,1826374836
Tizayuca,Tizayuca,19.8333,-98.9833,Mexico,MX,MEX,Morelos,minor,100563,1484244950
Chatham,Chatham,42.4229,-82.1324,Canada,CA,CAN,Ontario,,101647.00,1124393373
Zheleznogorsk,Zheleznogorsk,52.3333,35.3667,Russia,RU,RUS,Kurskaya Oblast’,,100740,1643006066
San Luis de la Paz,San Luis de la Paz,21.3000,-100.5167,Mexico,MX,MEX,Guanajuato,minor,101370,1484137795
Wakefield,Wakefield,53.6800,-1.4900,United Kingdom,GB,GBR,Wakefield,,99251,1826013112
Gütersloh,Gutersloh,51.9000,8.3833,Germany,DE,DEU,North Rhine-Westphalia,minor,100194,1276587494
Watford,Watford,51.6550,-0.3957,United Kingdom,GB,GBR,Hertfordshire,,96800,1826570072
Jilotepec,Jilotepec,19.9519,-99.5328,Mexico,MX,MEX,México,minor,100808,1484789785
Barnsley,Barnsley,53.5537,-1.4791,United Kingdom,GB,GBR,Barnsley,,91297,1826597621
Cottbus,Cottbus,51.7606,14.3342,Germany,DE,DEU,Brandenburg,minor,100219,1276436655
Kaiserslautern,Kaiserslautern,49.4447,7.7689,Germany,DE,DEU,Rhineland-Palatinate,minor,100030,1276674534
Kōnan,Konan,35.3333,136.8667,Japan,JP,JPN,Aichi,,97435,1392978695
Red Deer,Red Deer,52.2681,-113.8111,Canada,CA,CAN,Alberta,,100418,1124404130
Lincoln,Lincoln,53.2344,-0.5386,United Kingdom,GB,GBR,Lincolnshire,,97541,1826312785
Kamloops,Kamloops,50.6761,-120.3408,Canada,CA,CAN,British Columbia,,100046,1124735582
Kettering,Kettering,52.3931,-0.7229,United Kingdom,GB,GBR,Northamptonshire,,93475,1826968679
Khanty-Mansiysk,Khanty-Mansiysk,61.0000,69.0000,Russia,RU,RUS,Khanty-Mansiyskiy Avtonomnyy Okrug-Yugra,admin,98692,1643001221
Yashio,Yashio,35.8228,139.8392,Japan,JP,JPN,Saitama,,93283,1392563124
San Fernando,San Fernando,36.4667,-6.2000,Spain,ES,ESP,Andalusia,,95001,1724235367
Tenancingo,Tenancingo,18.9608,-99.5906,Mexico,MX,MEX,México,minor,90946,1484006247
Fulham,Fulham,51.4828,-0.1950,United Kingdom,GB,GBR,Hammersmith and Fulham,,87161,1826877782
Schwerin,Schwerin,53.6333,11.4167,Germany,DE,DEU,Mecklenburg-Western Pomerania,admin,95818,1276221707
Çankırı,Cankiri,40.6000,33.6167,Turkey,TR,TUR,Çankırı,admin,96025,1792584248
East Ham,East Ham,51.5323,0.0554,United Kingdom,GB,GBR,Newham,,76186,1826587417
Yotsukaidō,Yotsukaido,35.6700,140.1683,Japan,JP,JPN,Chiba,,93233,1392512633
Ludwigsburg,Ludwigsburg,48.8975,9.1919,Germany,DE,DEU,Baden-Württemberg,minor,93499,1276803720
Esslingen,Esslingen,48.7406,9.3108,Germany,DE,DEU,Baden-Württemberg,minor,93542,1276510955
Nisshin,Nisshin,35.1333,137.0333,Japan,JP,JPN,Aichi,,92823,1392999336
Ōbu,Obu,35.0167,136.9667,Japan,JP,JPN,Aichi,,92562,1392870664
Hartlepool,Hartlepool,54.6900,-1.2100,United Kingdom,GB,GBR,Hartlepool,,92000,1826069842
Ealing,Ealing,51.5175,-0.2988,United Kingdom,GB,GBR,Ealing,,85014,1826730060
Birkenhead,Birkenhead,53.3930,-3.0140,United Kingdom,GB,GBR,Wirral,,88818,1826080662
Tultepec,Tultepec,19.6850,-99.1281,Mexico,MX,MEX,México,minor,91808,1484818856
Ciudad Lázaro Cárdenas,Ciudad Lazaro Cardenas,17.9561,-102.1922,Mexico,MX,MEX,Michoacán de Ocampo,,79200,1484804575
Şırnak,Sirnak,37.5164,42.4611,Turkey,TR,TUR,Şırnak,admin,93431,1792867633
Nuneaton,Nuneaton,52.5230,-1.4680,United Kingdom,GB,GBR,Warwickshire,,86552,1826240370
Brixton,Brixton,51.4630,-0.1060,United Kingdom,GB,GBR,Lambeth,,78536,1826058068
Levallois-Perret,Levallois-Perret,48.8950,2.2872,France,FR,FRA,Île-de-France,,64379,1250809881
Santiago de Compostela,Santiago de Compostela,42.8778,-8.5444,Spain,ES,ESP,Galicia,admin,92430,1724547778
Magadan,Magadan,59.5667,150.8000,Russia,RU,RUS,Magadanskaya Oblast’,admin,92782,1643216966
Bromley,Bromley,51.4070,0.0210,United Kingdom,GB,GBR,Bromley,,87889,1826385764
Bath,Bath,51.3800,-2.3600,United Kingdom,GB,GBR,Bath and North East Somerset,,88859,1826611282
Edmonton,Edmonton,51.6154,-0.0708,United Kingdom,GB,GBR,Enfield,,82472,1826905865
Hayes,Hayes,51.5127,-0.4211,United Kingdom,GB,GBR,Hillingdon,,83564,1826539158
Lobnya,Lobnya,56.0167,37.4833,Russia,RU,RUS,Moskovskaya Oblast’,,88220,1643040713
Aulnay-sous-Bois,Aulnay-sous-Bois,48.9386,2.4906,France,FR,FRA,Île-de-France,,85740,1250420439
Fuengirola,Fuengirola,36.5417,-4.6250,Spain,ES,ESP,Andalusia,,82837,1724094287
Kitanagoya,Kitanagoya,35.2500,136.8667,Japan,JP,JPN,Aichi,,86060,1392360419
Cadereyta Jiménez,Cadereyta Jimenez,25.6000,-100.0000,Mexico,MX,MEX,Nuevo León,minor,86445,1484839099
Higashiyamato,Higashiyamato,35.7456,139.4267,Japan,JP,JPN,Tōkyō,,84260,1392233405
Poitiers,Poitiers,46.5800,0.3400,France,FR,FRA,Nouvelle-Aquitaine,minor,88291,1250812174
Acayucan,Acayucan,17.9422,-94.9103,Mexico,MX,MEX,Veracruz,minor,83817,1484349924
Versailles,Versailles,48.8053,2.1350,France,FR,FRA,Île-de-France,minor,85862,1250143827
Woolwich,Woolwich,51.4880,0.0630,United Kingdom,GB,GBR,Greenwich,,84959,1826479020
Ciudad de Ceuta,Ciudad de Ceuta,35.8867,-5.3000,Spain,ES,ESP,Ceuta,,84202,1724324416
Bracknell,Bracknell,51.4160,-0.7490,United Kingdom,GB,GBR,Bracknell Forest,,84469,1826880896
Apizaco,Apizaco,19.4167,-98.1333,Mexico,MX,MEX,Tlaxcala,minor,81565,1484021647
San Baudilio de Llobregat,San Baudilio de Llobregat,41.3458,2.0417,Spain,ES,ESP,Catalonia,,84500,1724214083
Tala,Tala,20.6525,-103.7028,Mexico,MX,MEX,Jalisco,minor,80365,1484003075
Carrières-sur-Seine,Carrieres-sur-Seine,48.9108,2.2889,France,FR,FRA,Île-de-France,,85191,1250595706
Fuentes del Valle,Fuentes del Valle,19.6325,-99.1386,Mexico,MX,MEX,México,,74087,1484020604
Salina Cruz,Salina Cruz,16.1671,-95.2000,Mexico,MX,MEX,Oaxaca,,81063,1484364230
Jalpa de Méndez,Jalpa de Mendez,18.1764,-93.0631,Mexico,MX,MEX,Tabasco,minor,83356,1484768624
Mardin,Mardin,37.3167,40.7378,Turkey,TR,TUR,Mardin,admin,86948,1792546179
Nacajuca,Nacajuca,18.1692,-93.0197,Mexico,MX,MEX,Tabasco,minor,83356,1484698021
Cárdenas,Cardenas,17.9830,-93.3670,Mexico,MX,MEX,Tabasco,minor,79875,1484824578
Edgware,Edgware,51.6185,-0.2729,United Kingdom,GB,GBR,Barnet,,76506,1826048876
Owariasahi,Owariasahi,35.2167,137.0333,Japan,JP,JPN,Aichi,,82336,1392703321
Toledo,Toledo,39.8567,-4.0244,Spain,ES,ESP,Castille-La Mancha,admin,85811,1724171411
Kuznetsk,Kuznetsk,53.1167,46.6000,Russia,RU,RUS,Penzenskaya Oblast’,,82276,1643787798
Ciudad Lerdo,Ciudad Lerdo,25.5500,-103.5167,Mexico,MX,MEX,Durango,minor,79669,1484980436
Issy-les-Moulineaux,Issy-les-Moulineaux,48.8239,2.2700,France,FR,FRA,Île-de-France,,68451,1250923546
Scunthorpe,Scunthorpe,53.5809,-0.6502,United Kingdom,GB,GBR,North Lincolnshire,,82334,1826817883
Tacámbaro de Codallos,Tacambaro de Codallos,19.2356,-101.4569,Mexico,MX,MEX,Michoacán de Ocampo,minor,76661,1484508699
Cunduacán,Cunduacan,18.0667,-93.1667,Mexico,MX,MEX,Tabasco,minor,81392,1484076708
Ivanteyevka,Ivanteyevka,55.9700,37.9200,Russia,RU,RUS,Moskovskaya Oblast’,,79346,1643986494
Nagaoka,Nagaoka,34.9267,135.6956,Japan,JP,JPN,Kyōto,,80423,1392219533
Cozumel,Cozumel,20.5104,-86.9493,Mexico,MX,MEX,Quintana Roo,minor,77236,1484935305
Cabo San Lucas,Cabo San Lucas,22.8897,-109.9156,Mexico,MX,MEX,Baja California Sur,,81111,1484694325
Champigny-sur-Marne,Champigny-sur-Marne,48.8172,2.5156,France,FR,FRA,Île-de-France,,77630,1250631569
Kunitachi,Kunitachi,35.6839,139.4414,Japan,JP,JPN,Tōkyō,,75133,1392309515
Newmarket,Newmarket,44.0500,-79.4667,Canada,CA,CAN,Ontario,,84224,1124400266
Clichy,Clichy,48.9044,2.3064,France,FR,FRA,Île-de-France,,61070,1250104726
West Bromwich,West Bromwich,52.5190,-1.9950,United Kingdom,GB,GBR,Sandwell,,77997,1826231773
Chatham,Chatham,51.3700,0.5200,United Kingdom,GB,GBR,Medway,,76792,1826765672
Rueil-Malmaison,Rueil-Malmaison,48.8760,2.1810,France,FR,FRA,Île-de-France,,78152,1250924511
Casoria,Casoria,40.9000,14.3000,Italy,IT,ITA,Campania,,77087,1380040521
Dudley,Dudley,52.5080,-2.0890,United Kingdom,GB,GBR,Dudley,,79379,1826052828
Zacatlán,Zacatlan,19.9319,-97.9600,Mexico,MX,MEX,Puebla,minor,76296,1484132726
White Rock,White Rock,49.0250,-122.8028,Canada,CA,CAN,British Columbia,,82368,1124260555
South Shields,South Shields,54.9950,-1.4300,United Kingdom,GB,GBR,South Tyneside,,75337,1826396004
Paisley,Paisley,55.8466,-4.4236,United Kingdom,GB,GBR,Renfrewshire,,77310,1826549531
Weston-super-Mare,Weston-super-Mare,51.3460,-2.9770,United Kingdom,GB,GBR,North Somerset,,76143,1826189795
Bilecik,Bilecik,40.1431,29.9792,Turkey,TR,TUR,Bilecik,admin,81723,1792408667
Juchitán de Zaragoza,Juchitan de Zaragoza,16.4333,-95.0194,Mexico,MX,MEX,Oaxaca,minor,74825,1484386317
Cinisello Balsamo,Cinisello Balsamo,45.5500,9.2167,Italy,IT,ITA,Lombardy,,75723,1380556172
Saint-Maur-des-Fossés,Saint-Maur-des-Fosses,48.7994,2.4997,France,FR,FRA,Île-de-France,,74859,1250687119
Hakkari,Hakkari,37.5744,43.7408,Turkey,TR,TUR,Hakkâri,admin,81424,1792629133
Bury,Bury,53.5930,-2.2980,United Kingdom,GB,GBR,Bury,,78723,1826242195
Gravesend,Gravesend,51.4415,0.3685,United Kingdom,GB,GBR,Kent,,74000,1826609378
Rubí,Rubi,41.4933,2.0325,Spain,ES,ESP,Catalonia,,78591,1724552367
Avilés,Aviles,43.5561,-5.9083,Spain,ES,ESP,Asturias,,77791,1724815050
Drancy,Drancy,48.9300,2.4500,France,FR,FRA,Île-de-France,,71318,1250144343
Lowestoft,Lowestoft,52.4800,1.7500,United Kingdom,GB,GBR,Suffolk,,71010,1826419858
Pau,Pau,43.3000,-0.3700,France,FR,FRA,Nouvelle-Aquitaine,minor,77130,1250041150
Tejupilco,Tejupilco,18.9058,-100.1528,Mexico,MX,MEX,México,minor,71077,1484506998
Carlisle,Carlisle,54.8910,-2.9440,United Kingdom,GB,GBR,Cumbria,,75306,1826843688
Harrogate,Harrogate,53.9919,-1.5378,United Kingdom,GB,GBR,North Yorkshire,,75070,1826765513
Newcastle under Lyme,Newcastle under Lyme,53.0109,-2.2278,United Kingdom,GB,GBR,Staffordshire,,75082,1826124765
Kensington,Kensington,51.5000,-0.1900,United Kingdom,GB,GBR,Kensington and Chelsea,,64681,1826583042
La Rochelle,La Rochelle,46.1591,-1.1517,France,FR,FRA,Nouvelle-Aquitaine,minor,75735,1250623782
East Kilbride,East Kilbride,55.7645,-4.1771,United Kingdom,GB,GBR,South Lanarkshire,,75390,1826488452
Gladbeck,Gladbeck,51.5713,6.9827,Germany,DE,DEU,North Rhine-Westphalia,,75687,1276216238
Cannes,Cannes,43.5513,7.0128,France,FR,FRA,Provence-Alpes-Côte d’Azur,,73868,1250487828
Thornton Heath,Thornton Heath,51.4002,-0.1086,United Kingdom,GB,GBR,Croydon,,65812,1826002522
Tamazunchale,Tamazunchale,21.2667,-98.7833,Mexico,MX,MEX,San Luis Potosí,minor,72685,1484802864
Jacona de Plancarte,Jacona de Plancarte,19.9500,-102.3167,Mexico,MX,MEX,México,,69744,1484202328
Ashford,Ashford,51.1465,0.8676,United Kingdom,GB,GBR,Kent,,74204,1826045748
Chiryū,Chiryu,35.0000,137.1167,Japan,JP,JPN,Aichi,,71907,1392192403
Calais,Calais,50.9481,1.8564,France,FR,FRA,Hauts-de-France,minor,73911,1250081128
Montrouge,Montrouge,48.8172,2.3219,France,FR,FRA,Île-de-France,,50260,1250189603
Southall,Southall,51.5121,-0.3779,United Kingdom,GB,GBR,Ealing,,69857,1826336436
Guamúchil,Guamuchil,25.4639,-108.0794,Mexico,MX,MEX,Sinaloa,minor,72500,1484709566
Musashimurayama,Musashimurayama,35.7547,139.3875,Japan,JP,JPN,Tōkyō,,71183,1392092262
Antibes,Antibes,43.5808,7.1239,France,FR,FRA,Provence-Alpes-Côte d’Azur,,72999,1250213494
Rugby,Rugby,52.3700,-1.2600,United Kingdom,GB,GBR,Warwickshire,,70628,1826969205
Guasave,Guasave,25.5744,-108.4706,Mexico,MX,MEX,Sinaloa,minor,71196,1484450749
Burton upon Trent,Burton upon Trent,52.8019,-1.6367,United Kingdom,GB,GBR,Staffordshire,,72299,1826585602
Uxbridge,Uxbridge,51.5404,-0.4778,United Kingdom,GB,GBR,Hillingdon,,70560,1826505308
Rioverde,Rioverde,21.9300,-99.9800,Mexico,MX,MEX,San Luis Potosí,minor,69613,1484341437
Crewe,Crewe,53.0990,-2.4400,United Kingdom,GB,GBR,Cheshire East,,71722,1826086541
Matehuala,Matehuala,23.6528,-100.6444,Mexico,MX,MEX,San Luis Potosí,minor,67717,1484682498
Hekinan,Hekinan,34.8833,137.0000,Japan,JP,JPN,Aichi,,72480,1392819275
Vincennes,Vincennes,48.8478,2.4392,France,FR,FRA,Île-de-France,,49891,1250087809
Yoshikawa,Yoshikawa,35.8958,139.8556,Japan,JP,JPN,Saitama,,72139,1392319161
Gosport,Gosport,50.7948,-1.1243,United Kingdom,GB,GBR,Hampshire,,71529,1826330438
Wandsworth,Wandsworth,51.4550,-0.1920,United Kingdom,GB,GBR,Wandsworth,,61594,1826844924
Birobidzhan,Birobidzhan,48.7833,132.9333,Russia,RU,RUS,Yevreyskaya Avtonomnaya Oblast’,admin,73623,1643548797
Tsurugashima,Tsurugashima,35.9344,139.3931,Japan,JP,JPN,Saitama,,70067,1392196288
Frontera,Frontera,26.9260,-101.4490,Mexico,MX,MEX,Coahuila de Zaragoza,minor,70160,1484811972
Neuilly-sur-Seine,Neuilly-sur-Seine,48.8881,2.2686,France,FR,FRA,Île-de-France,,60361,1250765188
Finchley,Finchley,51.5990,-0.1870,United Kingdom,GB,GBR,Barnet,,65812,1826882560
Noisy-le-Grand,Noisy-le-Grand,48.8478,2.5528,France,FR,FRA,Île-de-France,,68183,1250182208
Yawata-shimizui,Yawata-shimizui,34.8756,135.7078,Japan,JP,JPN,Kyōto,,70373,1392797096
Feltham,Feltham,51.4496,-0.4089,United Kingdom,GB,GBR,Hounslow,,63368,1826165560
Castelldefels,Castelldefels,41.2800,1.9767,Spain,ES,ESP,Catalonia,,67460,1724000280
Torremolinos,Torremolinos,36.6218,-4.5003,Spain,ES,ESP,Andalusia,,69166,1724424815
Chingford,Chingford,51.6310,0.0160,United Kingdom,GB,GBR,Waltham Forest,,66211,1826861021
Ivry-sur-Seine,Ivry-sur-Seine,48.8078,2.3747,France,FR,FRA,Île-de-France,,62052,1250904640
Toyoake,Toyoake,35.0625,137.0089,Japan,JP,JPN,Aichi,,69389,1392203165
Inverness,Inverness,57.4781,-4.2233,United Kingdom,GB,GBR,Highland,,70000,1826161019
Washington,Washington,54.9000,-1.5200,United Kingdom,GB,GBR,Sunderland,,67085,1826149081
Benalmádena,Benalmadena,36.6000,-4.5167,Spain,ES,ESP,Andalusia,,69144,1724108022
Bitlis,Bitlis,38.4000,42.1167,Turkey,TR,TUR,Bitlis,admin,71501,1792490436
Ajaccio,Ajaccio,41.9267,8.7369,France,FR,FRA,Corsica,admin,70659,1250622666
Maidenhead,Maidenhead,51.5217,-0.7177,United Kingdom,GB,GBR,Windsor and Maidenhead,,69309,1826979451
